# 
# Header Description:
# 
# Version: v3.0.0.10 Platform: 11 Manufacturer: Xiaomi Model: Mi Note 10 Lite
# 
# Raw,utcTimeMillis,TimeNanos,LeapSecond,TimeUncertaintyNanos,FullBiasNanos,BiasNanos,BiasUncertaintyNanos,DriftNanosPerSecond,DriftUncertaintyNanosPerSecond,HardwareClockDiscontinuityCount,Svid,TimeOffsetNanos,State,ReceivedSvTimeNanos,ReceivedSvTimeUncertaintyNanos,Cn0DbHz,PseudorangeRateMetersPerSecond,PseudorangeRateUncertaintyMetersPerSecond,AccumulatedDeltaRangeState,AccumulatedDeltaRangeMeters,AccumulatedDeltaRangeUncertaintyMeters,CarrierFrequencyHz,CarrierCycles,CarrierPhase,CarrierPhaseUncertainty,MultipathIndicator,SnrInDb,ConstellationType,AgcDb,BasebandCn0DbHz,FullInterSignalBiasNanos,FullInterSignalBiasUncertaintyNanos,SatelliteInterSignalBiasNanos,SatelliteInterSignalBiasUncertaintyNanos,CodeType,ChipsetElapsedRealtimeNanos
# 
# UncalAccel,utcTimeMillis,elapsedRealtimeNanos,UncalAccelXMps2,UncalAccelYMps2,UncalAccelZMps2,BiasXMps2,BiasYMps2,BiasZMps2
# 
# UncalGyro,utcTimeMillis,elapsedRealtimeNanos,UncalGyroXRadPerSec,UncalGyroYRadPerSec,UncalGyroZRadPerSec,DriftXRadPerSec,DriftYRadPerSec,DriftZRadPerSec
# 
# UncalMag,utcTimeMillis,elapsedRealtimeNanos,UncalMagXMicroT,UncalMagYMicroT,UncalMagZMicroT,BiasXMicroT,BiasYMicroT,BiasZMicroT
# 
# OrientationDeg,utcTimeMillis,elapsedRealtimeNanos,yawDeg,rollDeg,pitchDeg
# 
# Fix,Provider,LatitudeDegrees,LongitudeDegrees,AltitudeMeters,SpeedMps,AccuracyMeters,BearingDegrees,UnixTimeMillis,SpeedAccuracyMps,BearingAccuracyDegrees,elapsedRealtimeNanos
# 
# Nav,Svid,Type,Status,MessageId,Sub-messageId,Data(Bytes)
# 
# Status,UnixTimeMillis,SignalCount,SignalIndex,ConstellationType,Svid,CarrierFrequencyHz,Cn0DbHz,AzimuthDegrees,ElevationDegrees,UsedInFix,HasAlmanacData,HasEphemerisData,BasebandCn0DbHz
# 
OrientationDeg,1633946432911,579517239123258,308,0,3
OrientationDeg,1633946432919,579517248921487,308,0,3
OrientationDeg,1633946432930,579517258719717,308,0,3
OrientationDeg,1633946432940,579517268517946,308,0,3
OrientationDeg,1633946432950,579517278316175,308,0,3
OrientationDeg,1633946432959,579517288114404,308,0,3
OrientationDeg,1633946432969,579517297912633,308,0,2
OrientationDeg,1633946432979,579517307710862,308,0,2
OrientationDeg,1633946432989,579517317509092,308,0,2
OrientationDeg,1633946432999,579517327307321,308,0,2
OrientationDeg,1633946433009,579517337105550,308,0,2
OrientationDeg,1633946433018,579517346903779,308,0,2
OrientationDeg,1633946433028,579517356702008,308,0,3
OrientationDeg,1633946433038,579517366500237,308,0,3
OrientationDeg,1633946433048,579517376298467,308,0,3
OrientationDeg,1633946433058,579517386096696,308,0,2
OrientationDeg,1633946433067,579517395894925,308,0,2
OrientationDeg,1633946433077,579517405693154,308,0,2
OrientationDeg,1633946433087,579517415491383,308,0,2
OrientationDeg,1633946433097,579517425289612,308,0,3
OrientationDeg,1633946433107,579517435087842,308,0,3
OrientationDeg,1633946433116,579517444886071,308,0,3
OrientationDeg,1633946433125,579517454684300,308,0,3
OrientationDeg,1633946433136,579517464482529,308,0,3
OrientationDeg,1633946433146,579517474280758,308,0,3
OrientationDeg,1633946433156,579517484078987,308,0,3
OrientationDeg,1633946433165,579517493877217,308,0,3
OrientationDeg,1633946433175,579517503675446,308,0,3
OrientationDeg,1633946433185,579517513473675,308,0,3
OrientationDeg,1633946433195,579517523271904,308,0,3
OrientationDeg,1633946433204,579517533070133,308,0,3
OrientationDeg,1633946433214,579517542868362,308,0,3
OrientationDeg,1633946433224,579517552666592,308,0,3
OrientationDeg,1633946433234,579517562464821,308,0,3
OrientationDeg,1633946433244,579517572263050,309,0,3
OrientationDeg,1633946433254,579517582061331,309,0,3
OrientationDeg,1633946433263,579517591859560,309,0,3
OrientationDeg,1633946433272,579517601657790,309,0,2
OrientationDeg,1633946433283,579517611456019,309,0,2
OrientationDeg,1633946433293,579517621254248,309,0,2
OrientationDeg,1633946433303,579517631052477,309,0,2
OrientationDeg,1633946433312,579517640850706,309,0,2
OrientationDeg,1633946433322,579517650648935,309,0,2
OrientationDeg,1633946433332,579517660447165,309,0,2
OrientationDeg,1633946433342,579517670245394,309,0,2
OrientationDeg,1633946433352,579517680043623,309,0,2
OrientationDeg,1633946433361,579517689841852,309,0,2
OrientationDeg,1633946433371,579517699640081,309,0,2
OrientationDeg,1633946433381,579517709438310,309,0,2
OrientationDeg,1633946433391,579517719236540,309,0,2
OrientationDeg,1633946433400,579517729034769,309,0,2
OrientationDeg,1633946433410,579517738832998,309,0,2
OrientationDeg,1633946433420,579517748631279,309,0,2
OrientationDeg,1633946433429,579517758429508,310,0,2
Status,0,34,0,1,1,1575420032,18,30,129,00,54,00,0,1,0,18.3
Status,0,34,1,1,3,1575420032,22,20,21,00,74,00,1,1,0,22.2
Status,0,34,2,1,4,1575420032,39,70,188,00,55,00,1,1,0,39.7
Status,0,34,3,1,6,1575420032,41,70,309,00,13,00,1,1,1,41.7
Status,0,34,4,1,9,1575420032,39,70,209,00,21,00,1,1,1,39.7
Status,0,34,5,1,17,1575420032,37,90,267,00,45,00,1,1,0,37.9
Status,0,34,6,1,19,1575420032,35,10,298,00,35,00,1,1,0,35.1
Status,0,34,7,1,21,1575420032,22,60,135,00,34,00,0,1,0,22.6
Status,0,34,8,1,22,1575420032,23,10,67,00,56,00,0,1,0,23.1
Status,0,34,9,1,31,1575420032,26,90,61,00,21,00,1,1,0,26.9
Status,0,34,10,3,10,1602000000,23,50,68,00,7,00,0,1,0,23.5
Status,0,34,11,3,2,1602000000,38,30,239,00,29,00,1,1,0,38.3
Status,0,34,12,3,9,1602000000,35,30,23,00,7,00,1,1,0,35.3
Status,0,34,13,3,1,1602000000,32,10,345,00,75,00,1,1,0,32.1
Status,0,34,14,3,24,1602000000,38,90,233,00,78,00,1,1,0,38.9
Status,0,34,15,3,23,1602000000,29,80,163,00,40,00,1,1,0,29.8
Status,0,34,16,3,17,1602000000,46,10,324,00,33,00,1,1,0,46.1
Status,0,34,17,3,8,1602000000,20,50,40,00,32,00,1,1,0,20.5
Status,0,34,18,5,5,1561097984,23,50,118,00,18,00,0,1,0,23.5
Status,0,34,19,5,6,1561097984,20,00,39,00,18,00,0,1,0,20.0
Status,0,34,20,5,9,1561097984,21,10,47,00,31,00,0,1,0,21.1
Status,0,34,21,5,16,1561097984,20,90,36,00,14,00,0,1,0,20.9
Status,0,34,22,5,20,1561097984,37,70,246,00,11,00,0,1,0,37.7
Status,0,34,23,5,24,1561097984,24,00,37,00,4,00,0,1,0,24.0
Status,0,34,24,5,25,1561097984,33,50,88,00,9,00,0,1,0,33.5
Status,0,34,25,5,29,1561097984,43,40,320,00,13,00,0,1,0,43.4
Status,0,34,26,5,30,1561097984,42,40,275,00,55,00,0,1,0,42.4
Status,0,34,27,6,3,1575420032,24,70,60,00,59,00,0,1,0,24.7
Status,0,34,28,6,5,1575420032,25,40,46,00,9,00,0,1,0,25.4
Status,0,34,29,6,7,1575420032,20,90,220,00,9,00,0,1,0,20.9
Status,0,34,30,6,8,1575420032,46,10,208,00,59,00,1,1,0,46.1
Status,0,34,31,6,13,1575420032,44,50,303,00,61,00,1,1,0,44.5
Status,0,34,32,6,15,1575420032,30,10,147,00,59,00,1,1,0,30.1
Status,0,34,33,6,26,1575420032,25,20,313,00,8,00,0,1,0,25.2
OrientationDeg,1633946433440,579517768227737,310,0,2
OrientationDeg,1633946433450,579517778025967,310,0,2
OrientationDeg,1633946433459,579517787824196,310,0,2
Fix,GPS,45.0651796,7.6586697,283.000122,0.000000,5.274629,0.000000,1633946435000,1.1200446,0.0,579517791267725
OrientationDeg,1633946433469,579517797622425,310,0,2
OrientationDeg,1633946433479,579517807420654,310,0,2
OrientationDeg,1633946433489,579517817218883,310,0,2
Raw,1633946434446,3943416667000000,18,,-1314038235779192450,-0.4488706588745117,44.504471588879824,20.311618762933264,9.963503020602314,145,10,0.0,49359,46834366570868,46,20.5,-475.1093444824219,1.1255000829696655,16,0.0,0.0,1.59806246E9,,,,0,,3,1.68,17.5,,,,,,
Raw,1633946434446,3943416667000000,18,,-1314038235779192450,-0.4488706588745117,44.504471588879824,20.311618762933264,9.963503020602314,145,1,0.0,81935,122452376278462,136,14.8,433.2415771484375,4.380500316619873,16,0.0,0.0,1.57542003E9,,,,0,,1,0.35,11.3,,,,,,
Raw,1633946434446,3943416667000000,18,,-1314038235779192450,-0.4488706588745117,44.504471588879824,20.311618762933264,9.963503020602314,145,3,0.0,81935,122452378214645,61,18.7,105.80328369140625,1.0234999656677246,16,0.0,0.0,1.57542003E9,,,,0,,1,0.35,15.2,,,,,,
Raw,1633946434446,3943416667000000,18,,-1314038235779192450,-0.4488706588745117,44.504471588879824,20.311618762933264,9.963503020602314,145,4,0.0,81935,122452375765913,8,36.2,-407.1817626953125,0.04370000213384628,16,0.0,0.0,1.57542003E9,,,,0,,1,0.35,32.7,,,,,,
Raw,1633946434446,3943416667000000,18,,-1314038235779192450,-0.4488706588745117,44.504471588879824,20.311618762933264,9.963503020602314,145,6,0.0,81935,122452364934684,6,38.2,-640.7709350585938,0.026100000366568565,16,0.0,0.0,1.57542003E9,,,,0,,1,0.35,34.7,,,,,,
Raw,1633946434446,3943416667000000,18,,-1314038235779192450,-0.4488706588745117,44.504471588879824,20.311618762933264,9.963503020602314,145,9,0.0,81935,122452367501038,8,36.2,-676.34912109375,0.031700000166893005,16,0.0,0.0,1.57542003E9,,,,0,,1,0.35,32.7,,,,,,
Raw,1633946434446,3943416667000000,18,,-1314038235779192450,-0.4488706588745117,44.504471588879824,20.311618762933264,9.963503020602314,145,17,0.0,81935,122452373697719,10,34.4,79.6762466430664,0.041600003838539124,16,0.0,0.0,1.57542003E9,,,,0,,1,0.35,30.9,,,,,,
Raw,1633946434446,3943416667000000,18,,-1314038235779192450,-0.4488706588745117,44.504471588879824,20.311618762933264,9.963503020602314,145,19,0.0,81935,122452372700188,13,31.6,-222.10044860839844,0.04320000112056732,16,0.0,0.0,1.57542003E9,,,,0,,1,0.35,28.1,,,,,,
Raw,1633946434446,3943416667000000,18,,-1314038235779192450,-0.4488706588745117,44.504471588879824,20.311618762933264,9.963503020602314,145,22,0.0,81935,122452375159879,53,19.6,312.5002746582031,0.9389999508857727,16,0.0,0.0,1.57542003E9,,,,0,,1,0.35,16.1,,,,,,
Raw,1633946434446,3943416667000000,18,,-1314038235779192450,-0.4488706588745117,44.504471588879824,20.311618762933264,9.963503020602314,145,31,0.0,81935,122452368097874,31,23.4,26.079748153686523,0.7384999990463257,16,0.0,0.0,1.57542003E9,,,,0,,1,0.35,19.9,,,,,,
Raw,1633946434446,3943416667000000,18,,-1314038235779192450,-0.4488706588745117,44.504471588879824,20.311618762933264,9.963503020602314,145,6,0.0,16399,122438314263512,182,14.0,186.7392120361328,6.437500476837158,16,0.0,0.0,1.56109798E9,,,,0,,5,0.72,8.0,,,,,,
Raw,1633946434446,3943416667000000,18,,-1314038235779192450,-0.4488706588745117,44.504471588879824,20.311618762933264,9.963503020602314,145,9,0.0,16399,122438316879772,120,15.1,99.01557159423828,4.100500106811523,16,0.0,0.0,1.56109798E9,,,,0,,5,0.72,9.1,,,,,,
Raw,1633946434446,3943416667000000,18,,-1314038235779192450,-0.4488706588745117,44.504471588879824,20.311618762933264,9.963503020602314,145,20,0.0,16399,122438359368496,13,31.7,-536.0481567382812,0.053700000047683716,16,0.0,0.0,1.56109798E9,,,,0,,5,0.72,25.7,,,,,,
Raw,1633946434446,3943416667000000,18,,-1314038235779192450,-0.4488706588745117,44.504471588879824,20.311618762933264,9.963503020602314,145,25,0.0,16399,122438358474815,19,27.5,-392.2576904296875,0.06830000132322311,16,0.0,0.0,1.56109798E9,,,,0,,5,0.72,21.5,,,,,,
Raw,1633946434446,3943416667000000,18,,-1314038235779192450,-0.4488706588745117,44.504471588879824,20.311618762933264,9.963503020602314,145,29,0.0,16399,122438361023619,7,37.4,-544.9586791992188,0.022100001573562622,16,0.0,0.0,1.56109798E9,,,,0,,5,0.72,31.4,,,,,,
Raw,1633946434446,3943416667000000,18,,-1314038235779192450,-0.4488706588745117,44.504471588879824,20.311618762933264,9.963503020602314,145,30,0.0,16399,122438371901081,8,36.4,-52.30856704711914,0.037700001150369644,16,0.0,0.0,1.56109798E9,,,,0,,5,0.72,30.4,,,,,,
Raw,1633946434446,3943416667000000,18,,-1314038235779192450,-0.4488706588745117,44.504471588879824,20.311618762933264,9.963503020602314,145,5,0.0,89103,122452352837487,53,19.4,540.9573364257812,0.8104999661445618,16,0.0,0.0,1.57542003E9,,,,0,,6,0.38,13.399999999999999,,,,,,
Raw,1633946434446,3943416667000000,18,,-1314038235779192450,-0.4488706588745117,44.504471588879824,20.311618762933264,9.963503020602314,145,8,0.0,89103,122452372486135,5,40.1,-285.9172668457031,0.04340000078082085,16,0.0,0.0,1.57542003E9,,,,0,,6,0.38,34.1,,,,,,
Raw,1633946434446,3943416667000000,18,,-1314038235779192450,-0.4488706588745117,44.504471588879824,20.311618762933264,9.963503020602314,145,13,0.0,89103,122452367159097,6,38.5,-226.02752685546875,0.048600003123283386,16,0.0,0.0,1.57542003E9,,,,0,,6,0.38,32.5,,,,,,
Raw,1633946434446,3943416667000000,18,,-1314038235779192450,-0.4488706588745117,44.504471588879824,20.311618762933264,9.963503020602314,145,15,0.0,89103,122452367149362,27,24.1,308.70391845703125,0.5550000071525574,16,0.0,0.0,1.57542003E9,,,,0,,6,0.38,18.1,,,,,,
Raw,1633946434446,3943416667000000,18,,-1314038235779192450,-0.4488706588745117,44.504471588879824,20.311618762933264,9.963503020602314,145,26,0.0,89103,122452354207026,53,19.2,-538.3408203125,0.8134999871253967,16,0.0,0.0,1.57542003E9,,,,0,,6,0.38,13.2,,,,,,
OrientationDeg,1633946433499,579517827017112,310,0,2
OrientationDeg,1633946433508,579517836815342,310,0,2
OrientationDeg,1633946433518,579517846613571,310,0,2
OrientationDeg,1633946433528,579517856411852,311,0,2
OrientationDeg,1633946433538,579517866210081,311,0,2
OrientationDeg,1633946433548,579517876008310,311,0,2
OrientationDeg,1633946433557,579517885806540,311,0,3
OrientationDeg,1633946433567,579517895604769,311,0,3
OrientationDeg,1633946433577,579517905402998,311,0,3
OrientationDeg,1633946433587,579517915201227,311,0,3
OrientationDeg,1633946433596,579517924999456,311,0,3
OrientationDeg,1633946433606,579517934797685,311,0,3
OrientationDeg,1633946433616,579517944595967,312,0,3
OrientationDeg,1633946433626,579517954394196,312,0,3
OrientationDeg,1633946433636,579517964192425,312,0,3
OrientationDeg,1633946433645,579517973990654,312,0,3
OrientationDeg,1633946433655,579517983788883,312,0,3
OrientationDeg,1633946433665,579517993587112,312,0,3
OrientationDeg,1633946433675,579518003385342,312,0,3
OrientationDeg,1633946433685,579518013183571,312,0,3
OrientationDeg,1633946433694,579518022981852,313,0,3
OrientationDeg,1633946433704,579518032780081,313,0,4
OrientationDeg,1633946433714,579518042578310,313,0,4
OrientationDeg,1633946433724,579518052376540,313,0,4
OrientationDeg,1633946433734,579518062174769,313,0,4
OrientationDeg,1633946433743,579518071972998,313,0,4
OrientationDeg,1633946433753,579518081771227,313,0,4
OrientationDeg,1633946433763,579518091569508,313,0,4
OrientationDeg,1633946433772,579518101367737,314,0,4
OrientationDeg,1633946433783,579518111165967,314,0,4
OrientationDeg,1633946433792,579518120964196,314,0,4
OrientationDeg,1633946433802,579518130762425,314,0,4
OrientationDeg,1633946433812,579518140560654,314,0,4
OrientationDeg,1633946433822,579518150358935,314,0,4
OrientationDeg,1633946433831,579518160157165,315,0,4
OrientationDeg,1633946433841,579518169955394,315,0,3
OrientationDeg,1633946433851,579518179753623,315,0,3
OrientationDeg,1633946433861,579518189551852,315,0,3
OrientationDeg,1633946433871,579518199350081,315,-1,3
OrientationDeg,1633946433881,579518209148362,315,-1,3
OrientationDeg,1633946433890,579518218946592,315,-1,3
OrientationDeg,1633946433900,579518228744821,316,-1,3
OrientationDeg,1633946433910,579518238543050,316,-1,3
OrientationDeg,1633946433920,579518248341279,316,0,3
OrientationDeg,1633946433930,579518258139508,316,0,3
OrientationDeg,1633946433939,579518267937790,316,0,3
OrientationDeg,1633946433949,579518277736019,316,0,3
OrientationDeg,1633946433959,579518287534248,316,0,3
OrientationDeg,1633946433969,579518297332477,316,0,3
OrientationDeg,1633946433979,579518307130706,317,0,3
OrientationDeg,1633946433988,579518316928987,317,0,3
OrientationDeg,1633946433998,579518326727217,317,0,3
OrientationDeg,1633946434008,579518336525446,317,0,3
OrientationDeg,1633946434018,579518346323675,317,0,3
OrientationDeg,1633946434028,579518356121956,317,0,3
OrientationDeg,1633946434037,579518365920185,317,0,3
OrientationDeg,1633946434047,579518375718415,317,0,3
OrientationDeg,1633946434057,579518385516644,317,0,3
OrientationDeg,1633946434066,579518395314873,317,0,3
OrientationDeg,1633946434077,579518405113154,318,0,3
OrientationDeg,1633946434086,579518414911383,318,0,3
OrientationDeg,1633946434095,579518424709612,318,0,3
OrientationDeg,1633946434106,579518434507842,318,0,3
OrientationDeg,1633946434116,579518444306071,318,0,3
OrientationDeg,1633946434126,579518454104352,318,0,3
OrientationDeg,1633946434135,579518463902581,318,0,3
OrientationDeg,1633946434145,579518473700810,318,0,3
OrientationDeg,1633946434155,579518483499040,318,0,3
OrientationDeg,1633946434165,579518493297321,318,0,3
OrientationDeg,1633946434175,579518503095550,318,1,2
OrientationDeg,1633946434184,579518512893779,318,1,2
OrientationDeg,1633946434194,579518522692008,318,1,1
OrientationDeg,1633946434204,579518532490290,318,1,1
OrientationDeg,1633946434214,579518542288519,318,1,0
OrientationDeg,1633946434224,579518552086748,318,1,0
OrientationDeg,1633946434233,579518561884977,318,2,0
OrientationDeg,1633946434243,579518571683258,318,2,0
OrientationDeg,1633946434253,579518581481487,317,2,0
OrientationDeg,1633946434263,579518591279717,317,3,-1
OrientationDeg,1633946434273,579518601077946,317,3,-1
OrientationDeg,1633946434282,579518610876227,317,3,-2
OrientationDeg,1633946434292,579518620674456,316,4,-3
OrientationDeg,1633946434302,579518630472685,316,4,-4
OrientationDeg,1633946434312,579518640270915,316,4,-4
OrientationDeg,1633946434322,579518650069196,316,4,-5
OrientationDeg,1633946434331,579518659867425,315,4,-6
OrientationDeg,1633946434340,579518669665654,315,4,-7
OrientationDeg,1633946434351,579518679463883,315,4,-7
OrientationDeg,1633946434361,579518689262165,315,4,-8
OrientationDeg,1633946434371,579518699060394,314,4,-9
OrientationDeg,1633946434380,579518708858623,314,4,-10
OrientationDeg,1633946434390,579518718656904,314,4,-10
OrientationDeg,1633946434400,579518728455133,314,4,-11
OrientationDeg,1633946434410,579518738253362,313,5,-11
OrientationDeg,1633946434420,579518748051592,313,5,-12
OrientationDeg,1633946434429,579518757849873,312,5,-12
Status,1633946435000,34,0,1,1,1575420032,24,70,129,00,54,00,0,1,0,24.7
Status,1633946435000,34,1,1,3,1575420032,35,10,21,00,74,00,1,1,0,35.1
Status,1633946435000,34,2,1,4,1575420032,40,40,188,00,55,00,1,1,0,40.4
Status,1633946435000,34,3,1,6,1575420032,40,80,309,00,13,00,1,1,1,40.8
Status,1633946435000,34,4,1,9,1575420032,41,30,209,00,21,00,1,1,1,41.3
Status,1633946435000,34,5,1,17,1575420032,43,50,267,00,45,00,1,1,0,43.5
Status,1633946435000,34,6,1,19,1575420032,42,80,298,00,35,00,1,1,0,42.8
Status,1633946435000,34,7,1,21,1575420032,18,20,135,00,34,00,0,1,0,18.2
Status,1633946435000,34,8,1,22,1575420032,23,60,67,00,56,00,0,1,0,23.6
Status,1633946435000,34,9,1,31,1575420032,25,10,61,00,21,00,1,1,0,25.1
Status,1633946435000,34,10,3,10,1602000000,28,80,68,00,7,00,1,1,0,28.8
Status,1633946435000,34,11,3,2,1602000000,42,50,239,00,29,00,1,1,0,42.5
Status,1633946435000,34,12,3,9,1602000000,34,60,23,00,7,00,1,1,0,34.6
Status,1633946435000,34,13,3,1,1602000000,32,80,345,00,75,00,1,1,0,32.8
Status,1633946435000,34,14,3,24,1602000000,38,80,233,00,78,00,1,1,0,38.8
Status,1633946435000,34,15,3,23,1602000000,28,30,163,00,40,00,1,1,0,28.3
Status,1633946435000,34,16,3,17,1602000000,45,50,324,00,33,00,1,1,0,45.5
Status,1633946435000,34,17,3,8,1602000000,24,80,40,00,32,00,1,1,0,24.8
Status,1633946435000,34,18,5,5,1561097984,23,50,118,00,18,00,0,1,0,23.5
Status,1633946435000,34,19,5,6,1561097984,20,00,39,00,18,00,0,1,0,20.0
Status,1633946435000,34,20,5,9,1561097984,21,10,47,00,31,00,0,1,0,21.1
Status,1633946435000,34,21,5,16,1561097984,22,90,36,00,14,00,0,1,0,22.9
Status,1633946435000,34,22,5,20,1561097984,39,70,246,00,11,00,0,1,0,39.7
Status,1633946435000,34,23,5,24,1561097984,24,00,37,00,4,00,0,1,0,24.0
Status,1633946435000,34,24,5,25,1561097984,30,00,88,00,9,00,0,1,0,30.0
Status,1633946435000,34,25,5,29,1561097984,45,50,320,00,13,00,0,1,0,45.5
Status,1633946435000,34,26,5,30,1561097984,46,10,275,00,55,00,0,1,0,46.1
Status,1633946435000,34,27,6,3,1575420032,24,10,60,00,59,00,0,1,0,24.1
Status,1633946435000,34,28,6,5,1575420032,26,10,46,00,9,00,0,1,0,26.1
Status,1633946435000,34,29,6,7,1575420032,20,90,220,00,9,00,0,1,0,20.9
Status,1633946435000,34,30,6,8,1575420032,44,40,208,00,59,00,1,1,0,44.4
Status,1633946435000,34,31,6,13,1575420032,43,10,303,00,61,00,1,1,0,43.1
Status,1633946435000,34,32,6,15,1575420032,29,20,147,00,59,00,1,1,0,29.2
Status,1633946435000,34,33,6,26,1575420032,25,20,313,00,8,00,0,1,0,25.2
OrientationDeg,1633946434439,579518767648102,312,5,-12
OrientationDeg,1633946434448,579518777446331,312,5,-12
OrientationDeg,1633946434458,579518787244612,312,5,-12
OrientationDeg,1633946434469,579518797042842,312,5,-12
Fix,GPS,45.0651814,7.6586671,284.121216,0.290000,5.630478,309.500000,1633946436000,1.1113955,88.09467,579518786701370
Raw,1633946435446,3943417667000000,18,,-1314038235779192430,-0.6750297546386719,45.68773147184402,21.108779168682087,9.954077376547213,145,10,0.0,49359,46835366572472,24,25.8,-475.3680419921875,0.5907999873161316,16,0.0,0.0,1.59806246E9,,,,0,,3,1.34,22.8,,,,,,
Raw,1633946435446,3943417667000000,18,,-1314038235779192430,-0.6750297546386719,45.68773147184402,21.108779168682087,9.954077376547213,145,1,0.0,81935,122453376276895,40,21.2,432.8800354003906,0.8704999685287476,16,0.0,0.0,1.57542003E9,,,,0,,1,-0.02,17.7,,,,,,
Raw,1633946435446,3943417667000000,18,,-1314038235779192430,-0.6750297546386719,45.68773147184402,21.108779168682087,9.954077376547213,145,3,0.0,81935,122453378214288,13,31.6,105.80320739746094,0.05220000445842743,16,0.0,0.0,1.57542003E9,,,,0,,1,-0.02,28.1,,,,,,
Raw,1633946435446,3943417667000000,18,,-1314038235779192430,-0.6750297546386719,45.68773147184402,21.108779168682087,9.954077376547213,145,4,0.0,81935,122453375767264,8,36.9,-406.74041748046875,0.04370000213384628,16,0.0,0.0,1.57542003E9,,,,0,,1,-0.02,33.4,,,,,,
Raw,1633946435446,3943417667000000,18,,-1314038235779192430,-0.6750297546386719,45.68773147184402,21.108779168682087,9.954077376547213,145,6,0.0,81935,122453364936827,7,37.3,-640.7314453125,0.026600001379847527,16,0.0,0.0,1.57542003E9,,,,0,,1,-0.02,33.8,,,,,,
Raw,1633946435446,3943417667000000,18,,-1314038235779192430,-0.6750297546386719,45.68773147184402,21.108779168682087,9.954077376547213,145,9,0.0,81935,122453367503281,7,37.8,-675.9464721679688,0.03110000118613243,16,0.0,0.0,1.57542003E9,,,,0,,1,-0.02,34.3,,,,,,
Raw,1633946435446,3943417667000000,18,,-1314038235779192430,-0.6750297546386719,45.68773147184402,21.108779168682087,9.954077376547213,145,17,0.0,81935,122453373697472,5,40.0,79.94294738769531,0.03890000283718109,16,0.0,0.0,1.57542003E9,,,,0,,1,-0.02,36.5,,,,,,
Raw,1633946435446,3943417667000000,18,,-1314038235779192430,-0.6750297546386719,45.68773147184402,21.108779168682087,9.954077376547213,145,19,0.0,81935,122453372700969,6,39.3,-221.93844604492188,0.03760000318288803,16,0.0,0.0,1.57542003E9,,,,0,,1,-0.02,35.8,,,,,,
Raw,1633946435446,3943417667000000,18,,-1314038235779192430,-0.6750297546386719,45.68773147184402,21.108779168682087,9.954077376547213,145,21,0.0,81935,122453370210653,125,14.7,485.1632385253906,3.621500015258789,16,0.0,0.0,1.57542003E9,,,,0,,1,-0.02,11.2,,,,,,
Raw,1633946435446,3943417667000000,18,,-1314038235779192430,-0.6750297546386719,45.68773147184402,21.108779168682087,9.954077376547213,145,22,0.0,81935,122453375159063,46,20.1,313.3851318359375,0.9389999508857727,16,0.0,0.0,1.57542003E9,,,,0,,1,-0.02,16.6,,,,,,
Raw,1633946435446,3943417667000000,18,,-1314038235779192430,-0.6750297546386719,45.68773147184402,21.108779168682087,9.954077376547213,145,31,0.0,81935,122453368097627,40,21.6,25.004589080810547,0.7985000014305115,16,0.0,0.0,1.57542003E9,,,,0,,1,-0.02,18.1,,,,,,
Raw,1633946435446,3943417667000000,18,,-1314038235779192430,-0.6750297546386719,45.68773147184402,21.108779168682087,9.954077376547213,145,16,0.0,16399,122439311219692,83,16.9,210.22564697265625,1.7630000114440918,16,0.0,0.0,1.56109798E9,,,,0,,5,0.45,10.899999999999999,,,,,,
Raw,1633946435446,3943417667000000,18,,-1314038235779192430,-0.6750297546386719,45.68773147184402,21.108779168682087,9.954077376547213,145,20,0.0,16399,122439359370285,11,33.7,-535.8700561523438,0.05140000209212303,16,0.0,0.0,1.56109798E9,,,,0,,5,0.45,27.700000000000003,,,,,,
Raw,1633946435446,3943417667000000,18,,-1314038235779192430,-0.6750297546386719,45.68773147184402,21.108779168682087,9.954077376547213,145,25,0.0,16399,122439358476083,27,24.0,-391.4053039550781,0.5534999966621399,16,0.0,0.0,1.56109798E9,,,,0,,5,0.45,18.0,,,,,,
Raw,1633946435446,3943417667000000,18,,-1314038235779192430,-0.6750297546386719,45.68773147184402,21.108779168682087,9.954077376547213,145,29,0.0,16399,122439361025439,6,39.5,-544.89599609375,0.02110000140964985,16,0.0,0.0,1.56109798E9,,,,0,,5,0.45,33.5,,,,,,
Raw,1633946435446,3943417667000000,18,,-1314038235779192430,-0.6750297546386719,45.68773147184402,21.108779168682087,9.954077376547213,145,30,0.0,16399,122439371901248,5,40.1,-52.01273727416992,0.03590000048279762,16,0.0,0.0,1.56109798E9,,,,0,,5,0.45,34.1,,,,,,
Raw,1633946435446,3943417667000000,18,,-1314038235779192430,-0.6750297546386719,45.68773147184402,21.108779168682087,9.954077376547213,145,3,0.0,89103,122453365919799,64,18.1,244.47979736328125,1.621999979019165,16,0.0,0.0,1.57542003E9,,,,0,,6,0.0,12.100000000000001,,,,,,
Raw,1633946435446,3943417667000000,18,,-1314038235779192430,-0.6750297546386719,45.68773147184402,21.108779168682087,9.954077376547213,145,5,0.0,89103,122453352835705,46,20.1,541.9849243164062,0.750499963760376,16,0.0,0.0,1.57542003E9,,,,0,,6,0.0,14.100000000000001,,,,,,
Raw,1633946435446,3943417667000000,18,,-1314038235779192430,-0.6750297546386719,45.68773147184402,21.108779168682087,9.954077376547213,145,8,0.0,89103,122453372487094,6,38.4,-285.6470642089844,0.04410000145435333,16,0.0,0.0,1.57542003E9,,,,0,,6,0.0,32.4,,,,,,
Raw,1633946435446,3943417667000000,18,,-1314038235779192430,-0.6750297546386719,45.68773147184402,21.108779168682087,9.954077376547213,145,13,0.0,89103,122453367159853,7,37.1,-225.92202758789062,0.04910000041127205,16,0.0,0.0,1.57542003E9,,,,0,,6,0.0,31.1,,,,,,
Raw,1633946435446,3943417667000000,18,,-1314038235779192430,-0.6750297546386719,45.68773147184402,21.108779168682087,9.954077376547213,145,15,0.0,89103,122453367148309,31,23.2,309.6363525390625,0.6050000190734863,16,0.0,0.0,1.57542003E9,,,,0,,6,0.0,17.2,,,,,,
OrientationDeg,1633946434478,579518806841071,312,5,-12
OrientationDeg,1633946434488,579518816639352,312,5,-12
OrientationDeg,1633946434498,579518826437581,312,5,-12
OrientationDeg,1633946434508,579518836235810,313,4,-12
OrientationDeg,1633946434518,579518846034040,313,4,-12
OrientationDeg,1633946434527,579518855832321,313,4,-12
OrientationDeg,1633946434537,579518865630550,313,4,-12
OrientationDeg,1633946434547,579518875428779,314,3,-12
OrientationDeg,1633946434557,579518885227060,314,3,-11
OrientationDeg,1633946434567,579518895025290,315,2,-11
OrientationDeg,1633946434576,579518904823519,315,2,-10
OrientationDeg,1633946434586,579518914621800,316,2,-10
OrientationDeg,1633946434596,579518924420029,316,1,-9
OrientationDeg,1633946434606,579518934218258,316,1,-8
OrientationDeg,1633946434616,579518944016540,316,1,-7
OrientationDeg,1633946434625,579518953814769,316,1,-7
OrientationDeg,1633946434635,579518963612998,316,1,-6
OrientationDeg,1633946434645,579518973411227,316,2,-6
OrientationDeg,1633946434654,579518983209508,316,2,-6
OrientationDeg,1633946434665,579518993007737,316,2,-6
OrientationDeg,1633946434674,579519002806019,317,2,-6
OrientationDeg,1633946434683,579519012604248,317,2,-6
OrientationDeg,1633946434694,579519022402477,317,1,-6
OrientationDeg,1633946434704,579519032200758,317,1,-7
OrientationDeg,1633946434713,579519041998987,317,1,-7
OrientationDeg,1633946434723,579519051797217,317,1,-7
OrientationDeg,1633946434733,579519061595498,317,0,-8
OrientationDeg,1633946434743,579519071393727,317,0,-8
OrientationDeg,1633946434753,579519081191956,317,0,-8
OrientationDeg,1633946434762,579519090990237,317,0,-8
OrientationDeg,1633946434772,579519100788467,317,0,-8
OrientationDeg,1633946434782,579519110586696,317,0,-7
OrientationDeg,1633946434792,579519120384977,317,0,-7
OrientationDeg,1633946434802,579519130183206,317,0,-7
OrientationDeg,1633946434811,579519139981435,317,-1,-7
OrientationDeg,1633946434821,579519149779717,317,-1,-7
OrientationDeg,1633946434830,579519159577946,317,-1,-7
OrientationDeg,1633946434840,579519169376175,317,-1,-7
OrientationDeg,1633946434850,579519179174456,317,-1,-8
OrientationDeg,1633946434860,579519188972685,317,-1,-8
OrientationDeg,1633946434870,579519198770915,317,-1,-8
OrientationDeg,1633946434880,579519208569196,317,-2,-8
OrientationDeg,1633946434890,579519218367425,317,-2,-8
OrientationDeg,1633946434899,579519228165706,317,-2,-8
OrientationDeg,1633946434909,579519237963935,317,-2,-8
OrientationDeg,1633946434919,579519247762165,317,-2,-8
OrientationDeg,1633946434929,579519257560446,317,-2,-9
OrientationDeg,1633946434939,579519267358675,317,-3,-9
OrientationDeg,1633946434948,579519277156904,317,-3,-9
OrientationDeg,1633946434958,579519286955185,317,-3,-9
OrientationDeg,1633946434968,579519296753415,317,-4,-10
OrientationDeg,1633946434978,579519306551696,317,-4,-10
OrientationDeg,1633946434988,579519316349925,317,-4,-10
OrientationDeg,1633946434998,579519326148154,317,-4,-11
OrientationDeg,1633946435007,579519335946435,317,-4,-11
OrientationDeg,1633946435017,579519345744665,317,-5,-11
OrientationDeg,1633946435027,579519355542946,317,-5,-11
OrientationDeg,1633946435037,579519365341175,317,-5,-11
OrientationDeg,1633946435047,579519375139404,317,-5,-12
OrientationDeg,1633946435056,579519384937685,317,-6,-12
OrientationDeg,1633946435066,579519394735915,317,-6,-12
OrientationDeg,1633946435076,579519404534144,317,-6,-12
OrientationDeg,1633946435086,579519414332425,317,-6,-13
OrientationDeg,1633946435096,579519424130654,317,-6,-13
OrientationDeg,1633946435105,579519433928935,317,-6,-13
OrientationDeg,1633946435115,579519443727165,317,-6,-13
OrientationDeg,1633946435125,579519453525446,317,-7,-13
OrientationDeg,1633946435134,579519463323675,318,-7,-13
OrientationDeg,1633946435144,579519473121904,318,-7,-13
OrientationDeg,1633946435154,579519482920185,318,-7,-13
OrientationDeg,1633946435164,579519492718415,318,-7,-13
OrientationDeg,1633946435174,579519502516696,318,-7,-13
OrientationDeg,1633946435184,579519512314925,318,-7,-13
OrientationDeg,1633946435194,579519522113154,318,-7,-14
OrientationDeg,1633946435203,579519531911435,318,-7,-14
OrientationDeg,1633946435213,579519541709665,317,-7,-14
OrientationDeg,1633946435223,579519551507946,317,-7,-14
OrientationDeg,1633946435233,579519561306175,317,-7,-14
OrientationDeg,1633946435243,579519571104456,317,-7,-14
OrientationDeg,1633946435252,579519580902685,317,-7,-14
OrientationDeg,1633946435262,579519590700915,318,-7,-14
OrientationDeg,1633946435272,579519600499196,318,-7,-14
OrientationDeg,1633946435282,579519610297425,318,-7,-14
OrientationDeg,1633946435292,579519620095706,318,-7,-14
OrientationDeg,1633946435301,579519629893935,319,-7,-13
OrientationDeg,1633946435311,579519639692217,319,-8,-13
OrientationDeg,1633946435320,579519649490446,319,-8,-13
OrientationDeg,1633946435330,579519659288675,319,-8,-13
OrientationDeg,1633946435341,579519669086956,319,-8,-13
OrientationDeg,1633946435350,579519678885185,319,-8,-13
OrientationDeg,1633946435360,579519688683467,319,-8,-13
OrientationDeg,1633946435370,579519698481696,319,-8,-13
OrientationDeg,1633946435380,579519708279977,319,-8,-13
OrientationDeg,1633946435389,579519718078206,320,-8,-12
OrientationDeg,1633946435399,579519727876487,320,-8,-12
OrientationDeg,1633946435409,579519737674717,320,-7,-11
OrientationDeg,1633946435419,579519747472998,321,-7,-11
OrientationDeg,1633946435429,579519757271227,321,-7,-10
Status,1633946436000,34,0,1,1,1575420032,28,10,129,00,54,00,1,1,0,28.1
Status,1633946436000,34,1,1,3,1575420032,36,80,21,00,74,00,1,1,0,36.8
Status,1633946436000,34,2,1,4,1575420032,42,50,188,00,55,00,1,1,0,42.5
Status,1633946436000,34,3,1,6,1575420032,36,20,309,00,13,00,1,1,1,36.2
Status,1633946436000,34,4,1,9,1575420032,39,30,209,00,21,00,1,1,1,39.3
Status,1633946436000,34,5,1,17,1575420032,41,90,267,00,45,00,1,1,0,41.9
Status,1633946436000,34,6,1,19,1575420032,41,70,298,00,35,00,1,1,0,41.7
Status,1633946436000,34,7,1,21,1575420032,18,20,135,00,34,00,0,1,0,18.2
Status,1633946436000,34,8,1,22,1575420032,22,00,67,00,56,00,1,1,0,22.0
Status,1633946436000,34,9,1,31,1575420032,24,90,61,00,21,00,1,1,0,24.9
Status,1633946436000,34,10,3,10,1602000000,24,50,68,00,7,00,1,1,0,24.5
Status,1633946436000,34,11,3,2,1602000000,42,40,239,00,29,00,1,1,0,42.4
Status,1633946436000,34,12,3,9,1602000000,30,30,23,00,7,00,1,1,0,30.3
Status,1633946436000,34,13,3,1,1602000000,35,40,345,00,75,00,1,1,0,35.4
Status,1633946436000,34,14,3,24,1602000000,38,80,233,00,78,00,1,1,0,38.8
Status,1633946436000,34,15,3,23,1602000000,26,00,163,00,40,00,1,1,0,26.0
Status,1633946436000,34,16,3,17,1602000000,42,70,324,00,33,00,1,1,0,42.7
Status,1633946436000,34,17,3,8,1602000000,25,30,40,00,32,00,1,1,0,25.3
Status,1633946436000,34,18,5,5,1561097984,28,50,118,00,18,00,0,1,0,28.5
Status,1633946436000,34,19,5,6,1561097984,20,00,39,00,18,00,0,1,0,20.0
Status,1633946436000,34,20,5,9,1561097984,23,00,47,00,31,00,0,1,0,23.0
Status,1633946436000,34,21,5,16,1561097984,22,90,36,00,14,00,0,1,0,22.9
Status,1633946436000,34,22,5,20,1561097984,37,10,246,00,11,00,0,1,0,37.1
Status,1633946436000,34,23,5,24,1561097984,24,00,37,00,4,00,0,1,0,24.0
Status,1633946436000,34,24,5,25,1561097984,32,20,88,00,9,00,0,1,0,32.2
Status,1633946436000,34,25,5,29,1561097984,43,90,320,00,13,00,0,1,0,43.9
Status,1633946436000,34,26,5,30,1561097984,43,20,275,00,55,00,0,1,0,43.2
Status,1633946436000,34,27,6,3,1575420032,26,40,60,00,59,00,0,1,0,26.4
Status,1633946436000,34,28,6,5,1575420032,24,80,46,00,9,00,1,1,0,24.8
Status,1633946436000,34,29,6,7,1575420032,24,10,220,00,9,00,0,1,0,24.1
Status,1633946436000,34,30,6,8,1575420032,42,30,208,00,59,00,1,1,0,42.3
Status,1633946436000,34,31,6,13,1575420032,40,60,303,00,61,00,1,1,0,40.6
Status,1633946436000,34,32,6,15,1575420032,29,20,147,00,59,00,1,1,0,29.2
Status,1633946436000,34,33,6,26,1575420032,25,20,313,00,8,00,0,1,0,25.2
OrientationDeg,1633946435438,579519767069456,321,-7,-10
OrientationDeg,1633946435448,579519776867737,321,-7,-10
OrientationDeg,1633946435458,579519786665967,321,-6,-10
OrientationDeg,1633946435468,579519796464248,321,-6,-9
Fix,GPS,45.0651860,7.6586664,285.120483,0.620000,5.164725,357.399994,1633946437000,1.1473883,69.879524,579519803070016
OrientationDeg,1633946435478,579519806262477,321,-6,-9
OrientationDeg,1633946435487,579519816060758,321,-6,-9
OrientationDeg,1633946435497,579519825858987,321,-6,-9
Raw,1633946436446,3943418667000000,18,,-1314038235779192408,-0.7107181549072266,49.410889914724976,22.198363580426566,9.890136167664817,145,10,0.0,49359,46836366574184,40,21.5,-474.021240234375,1.0555000305175781,16,0.0,0.0,1.59806246E9,,,,0,,3,1.46,18.5,,,,,,
Raw,1633946436446,3943418667000000,18,,-1314038235779192408,-0.7107181549072266,49.410889914724976,22.198363580426566,9.890136167664817,145,1,0.0,81935,122454376275425,27,24.6,434.06939697265625,0.640500009059906,16,0.0,0.0,1.57542003E9,,,,0,,1,-0.02,21.1,,,,,,
Raw,1633946436446,3943418667000000,18,,-1314038235779192408,-0.7107181549072266,49.410889914724976,22.198363580426566,9.890136167664817,145,3,0.0,81935,122454378213923,11,33.3,106.75631713867188,0.04990000277757645,16,0.0,0.0,1.57542003E9,,,,0,,1,-0.02,29.799999999999997,,,,,,
Raw,1633946436446,3943418667000000,18,,-1314038235779192408,-0.7107181549072266,49.410889914724976,22.198363580426566,9.890136167664817,145,4,0.0,81935,122454375768628,6,39.0,-405.5697937011719,0.042100001126527786,16,0.0,0.0,1.57542003E9,,,,0,,1,-0.02,35.5,,,,,,
Raw,1633946436446,3943418667000000,18,,-1314038235779192408,-0.7107181549072266,49.410889914724976,22.198363580426566,9.890136167664817,145,6,0.0,81935,122454364938957,12,32.7,-639.968505859375,0.029900001361966133,16,0.0,0.0,1.57542003E9,,,,0,,1,-0.02,29.200000000000003,,,,,,
Raw,1633946436446,3943418667000000,18,,-1314038235779192408,-0.7107181549072266,49.410889914724976,22.198363580426566,9.890136167664817,145,9,0.0,81935,122454367505540,9,35.8,-675.1293334960938,0.032099999487400055,16,0.0,0.0,1.57542003E9,,,,0,,1,-0.02,32.3,,,,,,
Raw,1633946436446,3943418667000000,18,,-1314038235779192408,-0.7107181549072266,49.410889914724976,22.198363580426566,9.890136167664817,145,17,0.0,81935,122454373697195,6,38.4,80.80428314208984,0.03960000351071358,16,0.0,0.0,1.57542003E9,,,,0,,1,-0.02,34.9,,,,,,
Raw,1633946436446,3943418667000000,18,,-1314038235779192408,-0.7107181549072266,49.410889914724976,22.198363580426566,9.890136167664817,145,19,0.0,81935,122454372701710,6,38.2,-221.17919921875,0.03810000419616699,16,0.0,0.0,1.57542003E9,,,,0,,1,-0.02,34.7,,,,,,
Raw,1633946436446,3943418667000000,18,,-1314038235779192408,-0.7107181549072266,49.410889914724976,22.198363580426566,9.890136167664817,145,22,0.0,81935,122454375157884,61,18.5,314.7742919921875,1.0190000534057617,16,0.0,0.0,1.57542003E9,,,,0,,1,-0.02,15.0,,,,,,
Raw,1633946436446,3943418667000000,18,,-1314038235779192408,-0.7107181549072266,49.410889914724976,22.198363580426566,9.890136167664817,145,31,0.0,81935,122454368097687,40,21.4,27.36423110961914,0.8585000038146973,16,0.0,0.0,1.57542003E9,,,,0,,1,-0.02,17.9,,,,,,
Raw,1633946436446,3943418667000000,18,,-1314038235779192408,-0.7107181549072266,49.410889914724976,22.198363580426566,9.890136167664817,145,5,0.0,16399,122440314054572,78,22.5,16.62079620361328,12.443499565124512,16,0.0,0.0,1.56109798E9,,,,0,,5,0.53,16.5,,,,,,
Raw,1633946436446,3943418667000000,18,,-1314038235779192408,-0.7107181549072266,49.410889914724976,22.198363580426566,9.890136167664817,145,9,0.0,16399,122440316879260,73,17.0,100.63829040527344,1.690500020980835,16,0.0,0.0,1.56109798E9,,,,0,,5,0.53,11.0,,,,,,
Raw,1633946436446,3943418667000000,18,,-1314038235779192408,-0.7107181549072266,49.410889914724976,22.198363580426566,9.890136167664817,145,20,0.0,16399,122440359372036,13,31.1,-535.0869750976562,0.053700000047683716,16,0.0,0.0,1.56109798E9,,,,0,,5,0.53,25.1,,,,,,
Raw,1633946436446,3943418667000000,18,,-1314038235779192408,-0.7107181549072266,49.410889914724976,22.198363580426566,9.890136167664817,145,25,0.0,16399,122440358477414,21,26.2,-390.7661437988281,0.13819999992847443,16,0.0,0.0,1.56109798E9,,,,0,,5,0.53,20.2,,,,,,
Raw,1633946436446,3943418667000000,18,,-1314038235779192408,-0.7107181549072266,49.410889914724976,22.198363580426566,9.890136167664817,145,29,0.0,16399,122440361027266,7,37.9,-544.2648315429688,0.022100001573562622,16,0.0,0.0,1.56109798E9,,,,0,,5,0.53,31.9,,,,,,
Raw,1633946436446,3943418667000000,18,,-1314038235779192408,-0.7107181549072266,49.410889914724976,22.198363580426566,9.890136167664817,145,30,0.0,16399,122440371901414,7,37.2,-51.08047103881836,0.03709999844431877,16,0.0,0.0,1.56109798E9,,,,0,,5,0.53,31.200000000000003,,,,,,
Raw,1633946436446,3943418667000000,18,,-1314038235779192408,-0.7107181549072266,49.410889914724976,22.198363580426566,9.890136167664817,145,3,0.0,89103,122454365918956,46,20.4,244.93650817871094,0.7519999742507935,16,0.0,0.0,1.57542003E9,,,,0,,6,0.06,14.399999999999999,,,,,,
Raw,1633946436446,3943418667000000,18,,-1314038235779192408,-0.7107181549072266,49.410889914724976,22.198363580426566,9.890136167664817,145,5,0.0,89103,122454352833953,61,18.8,542.4130859375,0.8704999685287476,16,0.0,0.0,1.57542003E9,,,,0,,6,0.06,12.8,,,,,,
Raw,1633946436446,3943418667000000,18,,-1314038235779192408,-0.7107181549072266,49.410889914724976,22.198363580426566,9.890136167664817,145,7,0.0,89103,122454353061796,69,18.1,-549.1399536132812,2.371999979019165,16,0.0,0.0,1.57542003E9,,,,0,,6,0.06,12.100000000000001,,,,,,
Raw,1633946436446,3943418667000000,18,,-1314038235779192408,-0.7107181549072266,49.410889914724976,22.198363580426566,9.890136167664817,145,8,0.0,89103,122454372488048,8,36.3,-284.6040344238281,0.04520000144839287,16,0.0,0.0,1.57542003E9,,,,0,,6,0.06,30.299999999999997,,,,,,
Raw,1633946436446,3943418667000000,18,,-1314038235779192408,-0.7107181549072266,49.410889914724976,22.198363580426566,9.890136167664817,145,13,0.0,89103,122454367160611,10,34.6,-225.25315856933594,0.050599999725818634,16,0.0,0.0,1.57542003E9,,,,0,,6,0.06,28.6,,,,,,
OrientationDeg,1633946435507,579519835657269,321,-6,-9
OrientationDeg,1633946435516,579519845455498,321,-6,-9
OrientationDeg,1633946435527,579519855253779,321,-6,-8
OrientationDeg,1633946435537,579519865052008,321,-6,-8
OrientationDeg,1633946435546,579519874850290,321,-6,-8
OrientationDeg,1633946435556,579519884648519,321,-6,-8
OrientationDeg,1633946435566,579519894446800,321,-6,-9
OrientationDeg,1633946435576,579519904245029,321,-6,-9
OrientationDeg,1633946435586,579519914043310,320,-7,-9
OrientationDeg,1633946435595,579519923841540,320,-7,-9
OrientationDeg,1633946435605,579519933639821,320,-7,-10
OrientationDeg,1633946435615,579519943438050,320,-8,-10
OrientationDeg,1633946435625,579519953236331,320,-8,-10
OrientationDeg,1633946435635,579519963034560,320,-8,-11
OrientationDeg,1633946435644,579519972832842,320,-8,-11
OrientationDeg,1633946435654,579519982631071,320,-8,-11
OrientationDeg,1633946435664,579519992429352,320,-8,-11
OrientationDeg,1633946435674,579520002227581,320,-8,-11
OrientationDeg,1633946435684,579520012025862,320,-8,-11
OrientationDeg,1633946435693,579520021824092,320,-8,-11
OrientationDeg,1633946435703,579520031622373,320,-8,-11
OrientationDeg,1633946435713,579520041420602,320,-8,-11
OrientationDeg,1633946435723,579520051218883,320,-8,-11
OrientationDeg,1633946435733,579520061017112,320,-8,-11
OrientationDeg,1633946435742,579520070815342,320,-8,-11
OrientationDeg,1633946435752,579520080613623,320,-7,-11
OrientationDeg,1633946435762,579520090411904,320,-7,-11
OrientationDeg,1633946435772,579520100210133,320,-7,-11
OrientationDeg,1633946435782,579520110008415,320,-6,-11
OrientationDeg,1633946435791,579520119806644,320,-6,-10
OrientationDeg,1633946435801,579520129604925,320,-6,-10
OrientationDeg,1633946435811,579520139403154,320,-6,-10
OrientationDeg,1633946435821,579520149201435,320,-5,-9
OrientationDeg,1633946435830,579520158999665,320,-5,-9
OrientationDeg,1633946435840,579520168797946,320,-5,-9
OrientationDeg,1633946435849,579520178596175,320,-5,-8
OrientationDeg,1633946435860,579520188394456,320,-5,-8
OrientationDeg,1633946435870,579520198192737,320,-5,-8
OrientationDeg,1633946435879,579520207990967,320,-5,-8
OrientationDeg,1633946435889,579520217789196,320,-5,-7
OrientationDeg,1633946435899,579520227587477,319,-5,-7
OrientationDeg,1633946435908,579520237385758,319,-5,-7
OrientationDeg,1633946435919,579520247183987,319,-5,-7
OrientationDeg,1633946435928,579520256982269,319,-5,-7
OrientationDeg,1633946435938,579520266780498,319,-5,-7
OrientationDeg,1633946435947,579520276578779,319,-5,-7
OrientationDeg,1633946435958,579520286377008,319,-5,-7
OrientationDeg,1633946435968,579520296175290,318,-5,-7
OrientationDeg,1633946435977,579520305973571,318,-6,-7
OrientationDeg,1633946435987,579520315771800,318,-6,-7
OrientationDeg,1633946435997,579520325570081,318,-6,-7
OrientationDeg,1633946436007,579520335368310,318,-6,-6
OrientationDeg,1633946436017,579520345166592,317,-6,-6
OrientationDeg,1633946436026,579520354964821,317,-6,-7
OrientationDeg,1633946436036,579520364763102,317,-6,-7
OrientationDeg,1633946436046,579520374561331,317,-6,-7
OrientationDeg,1633946436056,579520384359612,317,-6,-7
OrientationDeg,1633946436066,579520394157894,317,-6,-7
OrientationDeg,1633946436075,579520403956123,317,-6,-7
OrientationDeg,1633946436085,579520413754404,317,-6,-7
OrientationDeg,1633946436095,579520423552633,317,-6,-7
OrientationDeg,1633946436105,579520433350915,317,-6,-7
OrientationDeg,1633946436115,579520443149144,317,-6,-7
OrientationDeg,1633946436124,579520452947425,317,-6,-7
OrientationDeg,1633946436134,579520462745706,317,-6,-7
OrientationDeg,1633946436143,579520472543935,317,-6,-7
OrientationDeg,1633946436154,579520482342217,317,-6,-7
OrientationDeg,1633946436164,579520492140498,317,-6,-7
OrientationDeg,1633946436173,579520501938727,317,-6,-7
OrientationDeg,1633946436183,579520511737008,317,-6,-7
OrientationDeg,1633946436193,579520521535237,318,-6,-7
OrientationDeg,1633946436203,579520531333519,318,-6,-7
OrientationDeg,1633946436213,579520541131748,318,-6,-7
OrientationDeg,1633946436222,579520550930029,318,-6,-7
OrientationDeg,1633946436232,579520560728310,318,-6,-8
OrientationDeg,1633946436242,579520570526540,318,-6,-8
OrientationDeg,1633946436252,579520580324821,318,-6,-8
OrientationDeg,1633946436262,579520590123102,319,-6,-8
OrientationDeg,1633946436271,579520599921331,319,-6,-8
OrientationDeg,1633946436281,579520609719612,319,-6,-8
OrientationDeg,1633946436291,579520619517842,320,-6,-8
OrientationDeg,1633946436301,579520629316123,320,-6,-8
OrientationDeg,1633946436311,579520639114404,320,-6,-8
OrientationDeg,1633946436320,579520648912633,320,-7,-8
OrientationDeg,1633946436329,579520658710915,320,-7,-7
OrientationDeg,1633946436339,579520668509144,320,-7,-7
OrientationDeg,1633946436350,579520678307425,320,-7,-7
OrientationDeg,1633946436360,579520688105706,320,-7,-7
OrientationDeg,1633946436369,579520697903935,320,-7,-7
OrientationDeg,1633946436379,579520707702217,320,-7,-7
OrientationDeg,1633946436389,579520717500498,319,-7,-7
OrientationDeg,1633946436399,579520727298727,319,-7,-7
OrientationDeg,1633946436409,579520737097008,319,-7,-7
OrientationDeg,1633946436418,579520746895290,319,-7,-7
OrientationDeg,1633946436428,579520756693519,319,-7,-7
Status,1633946437000,34,0,1,1,1575420032,27,60,129,00,54,00,1,1,0,27.6
Status,1633946437000,34,1,1,3,1575420032,34,40,21,00,74,00,1,1,0,34.4
Status,1633946437000,34,2,1,4,1575420032,42,20,188,00,55,00,1,1,0,42.2
Status,1633946437000,34,3,1,6,1575420032,41,70,309,00,13,00,1,1,1,41.7
Status,1633946437000,34,4,1,9,1575420032,42,50,209,00,21,00,1,1,1,42.5
Status,1633946437000,34,5,1,17,1575420032,43,30,267,00,45,00,1,1,0,43.3
Status,1633946437000,34,6,1,19,1575420032,41,20,298,00,35,00,1,1,0,41.2
Status,1633946437000,34,7,1,21,1575420032,23,90,135,00,34,00,0,1,0,23.9
Status,1633946437000,34,8,1,22,1575420032,24,70,67,00,56,00,1,1,0,24.7
Status,1633946437000,34,9,1,31,1575420032,22,50,61,00,21,00,1,1,0,22.5
Status,1633946437000,34,10,3,10,1602000000,25,20,68,00,7,00,1,1,0,25.2
Status,1633946437000,34,11,3,2,1602000000,40,70,239,00,29,00,1,1,0,40.7
Status,1633946437000,34,12,3,9,1602000000,35,60,23,00,7,00,1,1,0,35.6
Status,1633946437000,34,13,3,1,1602000000,34,00,345,00,75,00,1,1,0,34.0
Status,1633946437000,34,14,3,24,1602000000,39,90,233,00,78,00,1,1,0,39.9
Status,1633946437000,34,15,3,23,1602000000,27,90,163,00,40,00,1,1,0,27.9
Status,1633946437000,34,16,3,17,1602000000,43,80,324,00,33,00,1,1,0,43.8
Status,1633946437000,34,17,3,8,1602000000,28,00,40,00,32,00,1,1,0,28.0
Status,1633946437000,34,18,5,5,1561097984,28,50,118,00,18,00,1,1,0,28.5
Status,1633946437000,34,19,5,6,1561097984,20,00,39,00,18,00,0,1,0,20.0
Status,1633946437000,34,20,5,9,1561097984,23,00,47,00,31,00,0,1,0,23.0
Status,1633946437000,34,21,5,16,1561097984,22,30,36,00,14,00,0,1,0,22.3
Status,1633946437000,34,22,5,20,1561097984,32,30,246,00,11,00,0,1,0,32.3
Status,1633946437000,34,23,5,24,1561097984,24,00,37,00,4,00,0,1,0,24.0
Status,1633946437000,34,24,5,25,1561097984,28,00,88,00,9,00,0,1,0,28.0
Status,1633946437000,34,25,5,29,1561097984,44,00,320,00,13,00,0,1,0,44.0
Status,1633946437000,34,26,5,30,1561097984,45,80,275,00,55,00,0,1,0,45.8
Status,1633946437000,34,27,6,3,1575420032,29,70,60,00,59,00,1,1,0,29.7
Status,1633946437000,34,28,6,5,1575420032,24,80,46,00,9,00,1,1,0,24.8
Status,1633946437000,34,29,6,7,1575420032,28,50,220,00,9,00,0,1,0,28.5
Status,1633946437000,34,30,6,8,1575420032,39,50,208,00,59,00,1,1,0,39.5
Status,1633946437000,34,31,6,13,1575420032,39,90,303,00,61,00,1,1,0,39.9
Status,1633946437000,34,32,6,15,1575420032,28,30,147,00,59,00,1,1,0,28.3
Status,1633946437000,34,33,6,26,1575420032,24,90,313,00,8,00,0,1,0,24.9
OrientationDeg,1633946436438,579520766491800,319,-7,-7
OrientationDeg,1633946436448,579520776290081,319,-7,-7
OrientationDeg,1633946436458,579520786088310,319,-7,-6
OrientationDeg,1633946436467,579520795886592,320,-7,-6
Fix,GPS,45.0651892,7.6586557,285.869995,1.020000,4.600976,296.399994,1633946438000,1.0855874,5.5884066,579520784525640
OrientationDeg,1633946436477,579520805684873,320,-7,-6
OrientationDeg,1633946436487,579520815483102,320,-6,-5
OrientationDeg,1633946436497,579520825281383,320,-7,-5
Raw,1633946437446,3943419667000000,18,,-1314038235779192384,-0.03439521789550781,46.725195716135204,25.44766429679502,11.6468274563344,145,10,0.0,49359,46837366575648,35,22.2,-473.1489562988281,0.9954999685287476,16,0.0,0.0,1.59806246E9,,,,0,,3,1.44,19.2,,,,,,
Raw,1633946437446,3943419667000000,18,,-1314038235779192384,-0.03439521789550781,46.725195716135204,25.44766429679502,11.6468274563344,145,1,0.0,81935,122455376274083,27,24.1,435.4394836425781,0.6904999613761902,16,0.0,0.0,1.57542003E9,,,,0,,1,-0.0,20.6,,,,,,
Raw,1633946437446,3943419667000000,18,,-1314038235779192384,-0.03439521789550781,46.725195716135204,25.44766429679502,11.6468274563344,145,3,0.0,81935,122455378213554,14,30.9,108.1104965209961,0.052800003439188004,16,0.0,0.0,1.57542003E9,,,,0,,1,-0.0,27.4,,,,,,
Raw,1633946437446,3943419667000000,18,,-1314038235779192384,-0.03439521789550781,46.725195716135204,25.44766429679502,11.6468274563344,145,4,0.0,81935,122455375769974,6,38.7,-404.34222412109375,0.04260000213980675,16,0.0,0.0,1.57542003E9,,,,0,,1,-0.0,35.2,,,,,,
Raw,1633946437446,3943419667000000,18,,-1314038235779192384,-0.03439521789550781,46.725195716135204,25.44766429679502,11.6468274563344,145,6,0.0,81935,122455364941078,6,38.2,-639.3958129882812,0.026100000366568565,16,0.0,0.0,1.57542003E9,,,,0,,1,-0.0,34.7,,,,,,
Raw,1633946437446,3943419667000000,18,,-1314038235779192384,-0.03439521789550781,46.725195716135204,25.44766429679502,11.6468274563344,145,9,0.0,81935,122455367507796,6,39.0,-673.9074096679688,0.030100001022219658,16,0.0,0.0,1.57542003E9,,,,0,,1,-0.0,35.5,,,,,,
Raw,1633946437446,3943419667000000,18,,-1314038235779192384,-0.03439521789550781,46.725195716135204,25.44766429679502,11.6468274563344,145,17,0.0,81935,122455373696915,6,39.8,81.78092956542969,0.039100002497434616,16,0.0,0.0,1.57542003E9,,,,0,,1,-0.0,36.3,,,,,,
Raw,1633946437446,3943419667000000,18,,-1314038235779192384,-0.03439521789550781,46.725195716135204,25.44766429679502,11.6468274563344,145,19,0.0,81935,122455372702445,7,37.7,-220.07748413085938,0.038600001484155655,16,0.0,0.0,1.57542003E9,,,,0,,1,-0.0,34.2,,,,,,
Raw,1633946437446,3943419667000000,18,,-1314038235779192384,-0.03439521789550781,46.725195716135204,25.44766429679502,11.6468274563344,145,21,0.0,81935,122455370207366,49,20.4,487.1137390136719,1.68149995803833,16,0.0,0.0,1.57542003E9,,,,0,,1,-0.0,16.9,,,,,,
Raw,1633946437446,3943419667000000,18,,-1314038235779192384,-0.03439521789550781,46.725195716135204,25.44766429679502,11.6468274563344,145,22,0.0,81935,122455375156929,40,21.2,315.1548767089844,0.8689999580383301,16,0.0,0.0,1.57542003E9,,,,0,,1,-0.0,17.7,,,,,,
Raw,1633946437446,3943419667000000,18,,-1314038235779192384,-0.03439521789550781,46.725195716135204,25.44766429679502,11.6468274563344,145,31,0.0,81935,122455368097491,53,19.0,28.448904037475586,1.0084999799728394,16,0.0,0.0,1.57542003E9,,,,0,,1,-0.0,15.5,,,,,,
Raw,1633946437446,3943419667000000,18,,-1314038235779192384,-0.03439521789550781,46.725195716135204,25.44766429679502,11.6468274563344,145,16,0.0,16399,122441311218433,83,16.3,209.87034606933594,1.7630000114440918,16,0.0,0.0,1.56109798E9,,,,0,,5,0.53,10.3,,,,,,
Raw,1633946437446,3943419667000000,18,,-1314038235779192384,-0.03439521789550781,46.725195716135204,25.44766429679502,11.6468274563344,145,20,0.0,16399,122441359373843,21,26.3,-533.828125,0.1396999955177307,16,0.0,0.0,1.56109798E9,,,,0,,5,0.53,20.3,,,,,,
Raw,1633946437446,3943419667000000,18,,-1314038235779192384,-0.03439521789550781,46.725195716135204,25.44766429679502,11.6468274563344,145,25,0.0,16399,122441358478646,35,22.0,-390.704345703125,0.643500030040741,16,0.0,0.0,1.56109798E9,,,,0,,5,0.53,16.0,,,,,,
Raw,1633946437446,3943419667000000,18,,-1314038235779192384,-0.03439521789550781,46.725195716135204,25.44766429679502,11.6468274563344,145,29,0.0,16399,122441361029075,6,38.0,-543.3722534179688,0.02160000056028366,16,0.0,0.0,1.56109798E9,,,,0,,5,0.53,32.0,,,,,,
Raw,1633946437446,3943419667000000,18,,-1314038235779192384,-0.03439521789550781,46.725195716135204,25.44766429679502,11.6468274563344,145,30,0.0,16399,122441371901582,6,39.8,-50.187416076660156,0.03610000014305115,16,0.0,0.0,1.56109798E9,,,,0,,5,0.53,33.8,,,,,,
Raw,1633946437446,3943419667000000,18,,-1314038235779192384,-0.03439521789550781,46.725195716135204,25.44766429679502,11.6468274563344,145,3,0.0,89103,122455365918195,31,23.7,245.7738037109375,0.6019999980926514,16,0.0,0.0,1.57542003E9,,,,0,,6,-0.0,17.7,,,,,,
Raw,1633946437446,3943419667000000,18,,-1314038235779192384,-0.03439521789550781,46.725195716135204,25.44766429679502,11.6468274563344,145,7,0.0,89103,122455353063575,35,22.5,-547.5224609375,0.6420000195503235,16,0.0,0.0,1.57542003E9,,,,0,,6,-0.0,16.5,,,,,,
Raw,1633946437446,3943419667000000,18,,-1314038235779192384,-0.03439521789550781,46.725195716135204,25.44766429679502,11.6468274563344,145,8,0.0,89103,122455372488985,11,33.5,-283.3712158203125,0.04690000042319298,16,0.0,0.0,1.57542003E9,,,,0,,6,-0.0,27.5,,,,,,
Raw,1633946437446,3943419667000000,18,,-1314038235779192384,-0.03439521789550781,46.725195716135204,25.44766429679502,11.6468274563344,145,13,0.0,89103,122455367161346,11,33.9,-223.98146057128906,0.05140000209212303,16,0.0,0.0,1.57542003E9,,,,0,,6,-0.0,27.9,,,,,,
Raw,1633946437446,3943419667000000,18,,-1314038235779192384,-0.03439521789550781,46.725195716135204,25.44766429679502,11.6468274563344,145,15,0.0,89103,122455367146231,37,22.3,311.91986083984375,1.3949999809265137,16,0.0,0.0,1.57542003E9,,,,0,,6,-0.0,16.3,,,,,,
Raw,1633946437446,3943419667000000,18,,-1314038235779192384,-0.03439521789550781,46.725195716135204,25.44766429679502,11.6468274563344,145,26,0.0,89103,122455354212761,69,18.9,-537.627197265625,2.373500108718872,16,0.0,0.0,1.57542003E9,,,,0,,6,-0.0,12.899999999999999,,,,,,
OrientationDeg,1633946436507,579520835079665,320,-7,-5
OrientationDeg,1633946436516,579520844877894,321,-7,-4
OrientationDeg,1633946436526,579520854676175,321,-7,-4
OrientationDeg,1633946436536,579520864474456,321,-7,-4
OrientationDeg,1633946436546,579520874272685,321,-7,-4
OrientationDeg,1633946436556,579520884070967,321,-7,-4
OrientationDeg,1633946436565,579520893869248,322,-7,-4
OrientationDeg,1633946436575,579520903667477,322,-7,-4
OrientationDeg,1633946436585,579520913465758,322,-6,-4
OrientationDeg,1633946436595,579520923264040,322,-6,-4
OrientationDeg,1633946436605,579520933062269,323,-6,-3
OrientationDeg,1633946436614,579520942860550,323,-6,-3
OrientationDeg,1633946436624,579520952658831,323,-6,-3
OrientationDeg,1633946436634,579520962457060,323,-6,-3
OrientationDeg,1633946436644,579520972255342,324,-6,-3
OrientationDeg,1633946436654,579520982053623,324,-6,-3
OrientationDeg,1633946436663,579520991851852,324,-7,-3
OrientationDeg,1633946436673,579521001650133,324,-7,-3
OrientationDeg,1633946436683,579521011448415,324,-7,-3
OrientationDeg,1633946436693,579521021246696,324,-7,-3
OrientationDeg,1633946436703,579521031044925,325,-7,-3
OrientationDeg,1633946436712,579521040843206,325,-7,-3
OrientationDeg,1633946436722,579521050641487,325,-7,-4
OrientationDeg,1633946436732,579521060439769,325,-8,-4
OrientationDeg,1633946436742,579521070237998,325,-8,-4
OrientationDeg,1633946436752,579521080036279,326,-8,-4
OrientationDeg,1633946436760,579521089834560,326,-8,-5
OrientationDeg,1633946436771,579521099632790,326,-8,-5
OrientationDeg,1633946436781,579521109431071,326,-9,-5
OrientationDeg,1633946436791,579521119229352,327,-9,-6
OrientationDeg,1633946436801,579521129027633,327,-9,-6
OrientationDeg,1633946436810,579521138825862,327,-9,-6
OrientationDeg,1633946436820,579521148624144,327,-9,-6
OrientationDeg,1633946436830,579521158422425,328,-9,-6
OrientationDeg,1633946436839,579521168220706,328,-9,-6
OrientationDeg,1633946436850,579521178018935,328,-9,-6
OrientationDeg,1633946436859,579521187817217,328,-9,-6
OrientationDeg,1633946436869,579521197615498,328,-9,-5
OrientationDeg,1633946436878,579521207413727,328,-9,-5
OrientationDeg,1633946436889,579521217212008,329,-9,-6
OrientationDeg,1633946436899,579521227010290,329,-9,-6
OrientationDeg,1633946436908,579521236808571,329,-9,-6
OrientationDeg,1633946436918,579521246606800,328,-8,-6
OrientationDeg,1633946436928,579521256405081,328,-8,-7
OrientationDeg,1633946436938,579521266203362,328,-8,-7
OrientationDeg,1633946436948,579521276001644,328,-8,-7
OrientationDeg,1633946436957,579521285799925,328,-7,-8
OrientationDeg,1633946436967,579521295598154,328,-7,-8
OrientationDeg,1633946436977,579521305396435,328,-7,-8
OrientationDeg,1633946436987,579521315194717,327,-7,-8
OrientationDeg,1633946436996,579521324992998,327,-6,-8
OrientationDeg,1633946437006,579521334791227,327,-6,-9
OrientationDeg,1633946437016,579521344589508,327,-6,-9
OrientationDeg,1633946437026,579521354387790,326,-5,-9
OrientationDeg,1633946437036,579521364186071,326,-5,-9
OrientationDeg,1633946437045,579521373984300,326,-4,-9
OrientationDeg,1633946437055,579521383782581,325,-4,-10
OrientationDeg,1633946437065,579521393580862,325,-4,-10
OrientationDeg,1633946437075,579521403379144,325,-4,-10
OrientationDeg,1633946437085,579521413177425,325,-4,-9
OrientationDeg,1633946437094,579521422975654,325,-4,-9
OrientationDeg,1633946437103,579521432773935,325,-4,-9
OrientationDeg,1633946437114,579521442572217,325,-4,-9
OrientationDeg,1633946437124,579521452370498,324,-4,-9
OrientationDeg,1633946437134,579521462168727,324,-4,-9
OrientationDeg,1633946437143,579521471967008,324,-4,-9
OrientationDeg,1633946437153,579521481765290,323,-4,-9
OrientationDeg,1633946437163,579521491563571,323,-4,-9
OrientationDeg,1633946437173,579521501361852,323,-4,-9
OrientationDeg,1633946437183,579521511160133,322,-5,-9
OrientationDeg,1633946437192,579521520958362,322,-5,-9
OrientationDeg,1633946437202,579521530756644,322,-5,-9
OrientationDeg,1633946437212,579521540554925,321,-5,-8
OrientationDeg,1633946437222,579521550353206,321,-5,-8
OrientationDeg,1633946437232,579521560151435,321,-6,-8
OrientationDeg,1633946437241,579521569949717,321,-6,-8
OrientationDeg,1633946437251,579521579747998,320,-6,-8
OrientationDeg,1633946437261,579521589546279,320,-6,-8
OrientationDeg,1633946437271,579521599344560,320,-6,-8
OrientationDeg,1633946437281,579521609142842,320,-5,-8
OrientationDeg,1633946437290,579521618941071,319,-5,-8
OrientationDeg,1633946437300,579521628739352,319,-5,-8
OrientationDeg,1633946437310,579521638537633,319,-5,-8
OrientationDeg,1633946437320,579521648335915,319,-5,-8
OrientationDeg,1633946437330,579521658134196,319,-5,-8
OrientationDeg,1633946437339,579521667932477,318,-5,-8
OrientationDeg,1633946437349,579521677730706,318,-5,-8
OrientationDeg,1633946437359,579521687528987,318,-5,-8
OrientationDeg,1633946437368,579521697327269,318,-5,-8
OrientationDeg,1633946437378,579521707125550,318,-5,-8
OrientationDeg,1633946437388,579521716923831,318,-5,-8
OrientationDeg,1633946437398,579521726722112,318,-4,-8
OrientationDeg,1633946437408,579521736520342,318,-4,-8
OrientationDeg,1633946437418,579521746318623,318,-3,-8
OrientationDeg,1633946437428,579521756116904,318,-3,-8
Status,1633946438000,34,0,1,1,1575420032,25,90,129,00,54,00,1,1,0,25.9
Status,1633946438000,34,1,1,3,1575420032,35,40,21,00,74,00,1,1,0,35.4
Status,1633946438000,34,2,1,4,1575420032,43,40,188,00,55,00,1,1,0,43.4
Status,1633946438000,34,3,1,6,1575420032,41,80,309,00,13,00,1,1,1,41.8
Status,1633946438000,34,4,1,9,1575420032,43,50,209,00,21,00,1,1,1,43.5
Status,1633946438000,34,5,1,17,1575420032,38,00,267,00,45,00,1,1,0,38.0
Status,1633946438000,34,6,1,19,1575420032,43,30,298,00,35,00,1,1,0,43.3
Status,1633946438000,34,7,1,21,1575420032,23,90,135,00,34,00,1,1,0,23.9
Status,1633946438000,34,8,1,22,1575420032,33,30,67,00,56,00,1,1,0,33.3
Status,1633946438000,34,9,1,31,1575420032,24,30,61,00,21,00,1,1,0,24.3
Status,1633946438000,34,10,3,10,1602000000,27,70,68,00,7,00,1,1,0,27.7
