# 
# Header Description:
# 
# Version: v3.0.0.10 Platform: 11 Manufacturer: Xiaomi Model: Mi Note 10 Lite
# 
# Raw,utcTimeMillis,TimeNanos,LeapSecond,TimeUncertaintyNanos,FullBiasNanos,BiasNanos,BiasUncertaintyNanos,DriftNanosPerSecond,DriftUncertaintyNanosPerSecond,HardwareClockDiscontinuityCount,Svid,TimeOffsetNanos,State,ReceivedSvTimeNanos,ReceivedSvTimeUncertaintyNanos,Cn0DbHz,PseudorangeRateMetersPerSecond,PseudorangeRateUncertaintyMetersPerSecond,AccumulatedDeltaRangeState,AccumulatedDeltaRangeMeters,AccumulatedDeltaRangeUncertaintyMeters,CarrierFrequencyHz,CarrierCycles,CarrierPhase,CarrierPhaseUncertainty,MultipathIndicator,SnrInDb,ConstellationType,AgcDb,BasebandCn0DbHz,FullInterSignalBiasNanos,FullInterSignalBiasUncertaintyNanos,SatelliteInterSignalBiasNanos,SatelliteInterSignalBiasUncertaintyNanos,CodeType,ChipsetElapsedRealtimeNanos
# 
# UncalAccel,utcTimeMillis,elapsedRealtimeNanos,UncalAccelXMps2,UncalAccelYMps2,UncalAccelZMps2,BiasXMps2,BiasYMps2,BiasZMps2
# 
# UncalGyro,utcTimeMillis,elapsedRealtimeNanos,UncalGyroXRadPerSec,UncalGyroYRadPerSec,UncalGyroZRadPerSec,DriftXRadPerSec,DriftYRadPerSec,DriftZRadPerSec
# 
# UncalMag,utcTimeMillis,elapsedRealtimeNanos,UncalMagXMicroT,UncalMagYMicroT,UncalMagZMicroT,BiasXMicroT,BiasYMicroT,BiasZMicroT
# 
# OrientationDeg,utcTimeMillis,elapsedRealtimeNanos,yawDeg,rollDeg,pitchDeg
# 
# Fix,Provider,LatitudeDegrees,LongitudeDegrees,AltitudeMeters,SpeedMps,AccuracyMeters,BearingDegrees,UnixTimeMillis,SpeedAccuracyMps,BearingAccuracyDegrees,elapsedRealtimeNanos
# 
# Nav,Svid,Type,Status,MessageId,Sub-messageId,Data(Bytes)
# 
# Status,UnixTimeMillis,SignalCount,SignalIndex,ConstellationType,Svid,CarrierFrequencyHz,Cn0DbHz,AzimuthDegrees,ElevationDegrees,UsedInFix,HasAlmanacData,HasEphemerisData,BasebandCn0DbHz
# 
OrientationDeg,1633966529938,599614266191686,176,11,-28
OrientationDeg,1633966529947,599614275992988,176,11,-28
OrientationDeg,1633966529957,599614285794342,176,11,-28
OrientationDeg,1633966529967,599614295595697,176,11,-28
OrientationDeg,1633966529977,599614305397051,176,11,-28
OrientationDeg,1633966529987,599614315198353,176,10,-28
OrientationDeg,1633966529996,599614324999707,176,10,-28
OrientationDeg,1633966530006,599614334801061,176,10,-28
OrientationDeg,1633966530016,599614344602415,176,10,-28
OrientationDeg,1633966530026,599614354403717,177,10,-28
OrientationDeg,1633966530036,599614364205072,177,10,-28
OrientationDeg,1633966530045,599614374006426,177,10,-28
OrientationDeg,1633966530055,599614383807780,177,10,-28
OrientationDeg,1633966530065,599614393609082,177,9,-28
OrientationDeg,1633966530075,599614403410436,177,9,-28
OrientationDeg,1633966530085,599614413211790,177,9,-28
OrientationDeg,1633966530095,599614423013145,177,9,-28
OrientationDeg,1633966530104,599614432814447,177,9,-28
OrientationDeg,1633966530114,599614442615801,177,9,-28
OrientationDeg,1633966530124,599614452417155,177,9,-28
OrientationDeg,1633966530134,599614462218509,177,8,-27
OrientationDeg,1633966530144,599614472019811,178,8,-27
OrientationDeg,1633966530153,599614481821165,178,8,-27
OrientationDeg,1633966530163,599614491622520,178,8,-27
OrientationDeg,1633966530173,599614501423874,178,8,-27
OrientationDeg,1633966530183,599614511225176,178,8,-27
OrientationDeg,1633966530193,599614521026530,178,8,-27
OrientationDeg,1633966530202,599614530827884,178,8,-27
OrientationDeg,1633966530212,599614540629238,178,8,-27
OrientationDeg,1633966530222,599614550430540,178,8,-27
OrientationDeg,1633966530232,599614560231895,179,8,-27
OrientationDeg,1633966530242,599614570033249,179,8,-27
OrientationDeg,1633966530251,599614579834603,179,7,-27
OrientationDeg,1633966530260,599614589635905,179,7,-27
OrientationDeg,1633966530270,599614599437259,180,7,-27
OrientationDeg,1633966530281,599614609238613,180,7,-28
OrientationDeg,1633966530291,599614619039967,181,7,-28
OrientationDeg,1633966530300,599614628841270,181,7,-28
OrientationDeg,1633966530310,599614638642624,181,7,-28
OrientationDeg,1633966530320,599614648443978,182,8,-29
OrientationDeg,1633966530330,599614658245332,182,8,-29
OrientationDeg,1633966530340,599614668046634,182,7,-29
OrientationDeg,1633966530349,599614677847988,182,7,-29
OrientationDeg,1633966530359,599614687649342,182,6,-29
OrientationDeg,1633966530369,599614697450697,182,5,-29
OrientationDeg,1633966530379,599614707251999,182,5,-29
OrientationDeg,1633966530389,599614717053353,182,5,-29
OrientationDeg,1633966530398,599614726854707,182,5,-29
OrientationDeg,1633966530408,599614736656061,182,4,-28
OrientationDeg,1633966530418,599614746457363,181,3,-27
OrientationDeg,1633966530428,599614756258717,181,3,-27
OrientationDeg,1633966530438,599614766060072,180,3,-26
Status,0,24,0,1,2,1575420032,31,50,224,00,9,00,1,1,1,31.5
Status,0,24,1,1,5,1575420032,27,80,292,00,54,00,1,1,0,27.8
Status,0,24,2,1,7,1575420032,28,40,53,00,42,00,1,1,0,28.4
Status,0,24,3,1,9,1575420032,36,80,97,00,14,00,1,1,0,36.8
Status,0,24,4,1,13,1575420032,31,10,288,00,40,00,1,1,0,31.1
Status,0,24,5,1,14,1575420032,38,00,149,00,32,00,1,1,1,38.0
Status,0,24,6,1,15,1575420032,22,00,288,00,11,00,0,1,0,22.0
Status,0,24,7,1,20,1575420032,27,90,222,00,62,00,1,1,0,27.9
Status,0,24,8,1,28,1575420032,38,30,0,00,0,00,0,0,0,38.3
Status,0,24,9,1,30,1575420032,24,60,64,00,78,00,1,1,0,24.6
Status,0,24,10,3,14,1602000000,31,90,175,00,63,00,1,1,0,31.9
Status,0,24,11,3,13,1602000000,13,60,42,00,49,00,0,1,0,13.6
Status,0,24,12,3,5,1602000000,27,50,312,00,16,00,1,1,0,27.5
Status,0,24,13,3,3,1602000000,32,60,108,00,49,00,1,1,0,32.6
Status,0,24,14,3,4,1602000000,24,60,341,00,66,00,1,1,0,24.6
Status,0,24,15,5,5,1561097984,37,80,119,00,16,00,1,1,0,37.8
Status,0,24,16,5,7,1561097984,23,70,52,00,21,00,1,1,0,23.7
Status,0,24,17,5,10,1561097984,26,20,66,00,28,00,1,1,0,26.2
Status,0,24,18,5,19,1561097984,24,40,293,00,78,00,0,1,0,24.4
Status,0,24,19,5,20,1561097984,38,20,132,00,45,00,0,1,0,38.2
Status,0,24,20,5,22,1561097984,27,80,307,00,24,00,0,1,0,27.8
Status,0,24,21,6,7,1575420032,25,50,90,00,61,00,1,1,0,25.5
Status,0,24,22,6,27,1575420032,36,90,163,00,40,00,1,1,0,36.9
Status,0,24,23,6,30,1575420032,30,90,77,00,49,00,1,1,0,30.9
OrientationDeg,1633966530447,599614775861426,179,3,-25
OrientationDeg,1633966530457,599614785662728,178,3,-25
OrientationDeg,1633966530467,599614795464082,178,3,-24
Fix,GPS,44.9930311,7.6475475,275.728516,18.209999,10.250225,251.100006,1633966532000,1.0955364,0.82188493,599614801862133
OrientationDeg,1633966530477,599614805265436,177,3,-24
OrientationDeg,1633966530487,599614815066790,177,3,-23
Raw,1633966531435,234629915000000,18,,-1317767119520670979,0.12603187561035156,58.76169234397821,3.3960535089340746,21.650376739710474,158,14,0.0,49359,66931370229885,17,28.9,-373.34442138671875,0.2483000010251999,16,0.0,0.0,1.59806246E9,,,,0,,3,-0.47,25.9,,,,,,
Raw,1633966531435,234629915000000,18,,-1317767119520670979,0.12603187561035156,58.76169234397821,3.3960535089340746,21.650376739710474,158,2,0.0,81935,142549352926223,17,28.0,509.7933044433594,0.05130000412464142,16,0.0,0.0,1.57542003E9,,,,0,,1,3.83,24.5,,,,,,
Raw,1633966531435,234629915000000,18,,-1317767119520670979,0.12603187561035156,58.76169234397821,3.3960535089340746,21.650376739710474,158,5,0.0,81935,142549365594851,27,24.3,-242.8052215576172,0.6739999651908875,16,0.0,0.0,1.57542003E9,,,,0,,1,3.83,20.8,,,,,,
Raw,1633966531435,234629915000000,18,,-1317767119520670979,0.12603187561035156,58.76169234397821,3.3960535089340746,21.650376739710474,158,7,0.0,81935,142549362280127,27,24.9,440.615478515625,0.6195000410079956,16,0.0,0.0,1.57542003E9,,,,0,,1,3.83,21.4,,,,,,
Raw,1633966531435,234629915000000,18,,-1317767119520670979,0.12603187561035156,58.76169234397821,3.3960535089340746,21.650376739710474,158,9,0.0,81935,142549354695703,11,33.3,594.962158203125,0.04390000179409981,16,0.0,0.0,1.57542003E9,,,,0,,1,3.83,29.799999999999997,,,,,,
Raw,1633966531435,234629915000000,18,,-1317767119520670979,0.12603187561035156,58.76169234397821,3.3960535089340746,21.650376739710474,158,13,0.0,81935,142549363179383,19,27.6,-450.9326171875,0.04580000042915344,16,0.0,0.0,1.57542003E9,,,,0,,1,3.83,24.1,,,,,,
Raw,1633966531435,234629915000000,18,,-1317767119520670979,0.12603187561035156,58.76169234397821,3.3960535089340746,21.650376739710474,158,14,0.0,81935,142549360487873,10,34.5,-563.1895141601562,0.022099999710917473,16,0.0,0.0,1.57542003E9,,,,0,,1,3.83,31.0,,,,,,
Raw,1633966531435,234629915000000,18,,-1317767119520670979,0.12603187561035156,58.76169234397821,3.3960535089340746,21.650376739710474,158,20,0.0,81935,142549367455537,27,24.4,197.10618591308594,0.6769999861717224,16,0.0,0.0,1.57542003E9,,,,0,,1,3.83,20.9,,,,,,
Raw,1633966531435,234629915000000,18,,-1317767119520670979,0.12603187561035156,58.76169234397821,3.3960535089340746,21.650376739710474,158,30,0.0,81935,142549367167750,40,21.1,113.62435913085938,0.8569999933242798,16,0.0,0.0,1.57542003E9,,,,0,,1,3.83,17.6,,,,,,
Raw,1633966531435,234629915000000,18,,-1317767119520670979,0.12603187561035156,58.76169234397821,3.3960535089340746,21.650376739710474,158,5,0.0,16399,142535302975761,13,31.8,15.65121841430664,5.957299709320068,16,0.0,0.0,1.56109798E9,,,,0,,5,4.79,25.8,,,,,,
Raw,1633966531435,234629915000000,18,,-1317767119520670979,0.12603187561035156,58.76169234397821,3.3960535089340746,21.650376739710474,158,7,0.0,16399,142535304073304,78,17.7,4.503326416015625,2.4225001335144043,16,0.0,0.0,1.56109798E9,,,,0,,5,4.79,11.7,,,,,,
Raw,1633966531435,234629915000000,18,,-1317767119520670979,0.12603187561035156,58.76169234397821,3.3960535089340746,21.650376739710474,158,10,0.0,16399,142535305574398,46,20.2,-80.25330352783203,0.7339999675750732,16,0.0,0.0,1.56109798E9,,,,0,,5,4.79,14.2,,,,,,
Raw,1633966531435,234629915000000,18,,-1317767119520670979,0.12603187561035156,58.76169234397821,3.3960535089340746,21.650376739710474,158,19,0.0,16399,142535364450749,61,18.4,-97.46003723144531,0.8524999618530273,16,0.0,0.0,1.56109798E9,,,,0,,5,4.79,12.399999999999999,,,,,,
Raw,1633966531435,234629915000000,18,,-1317767119520670979,0.12603187561035156,58.76169234397821,3.3960535089340746,21.650376739710474,158,20,0.0,16399,142535358037969,12,32.2,444.0238952636719,0.05090000107884407,16,0.0,0.0,1.56109798E9,,,,0,,5,4.79,26.200000000000003,,,,,,
Raw,1633966531435,234629915000000,18,,-1317767119520670979,0.12603187561035156,58.76169234397821,3.3960535089340746,21.650376739710474,158,7,0.0,89103,142549355619996,53,19.5,204.52764892578125,0.8089999556541443,16,0.0,0.0,1.57542003E9,,,,0,,6,3.91,13.5,,,,,,
Raw,1633966531435,234629915000000,18,,-1317767119520670979,0.12603187561035156,58.76169234397821,3.3960535089340746,21.650376739710474,158,27,0.0,89103,142549352013792,14,30.9,-484.0409240722656,0.049800001084804535,16,0.0,0.0,1.57542003E9,,,,0,,6,3.91,24.9,,,,,,
Raw,1633966531435,234629915000000,18,,-1317767119520670979,0.12603187561035156,58.76169234397821,3.3960535089340746,21.650376739710474,158,30,0.0,89103,142549356578024,27,24.9,63.47245788574219,0.5504999756813049,16,0.0,0.0,1.57542003E9,,,,0,,6,3.91,18.9,,,,,,
OrientationDeg,1633966530496,599614824868092,177,3,-23
OrientationDeg,1633966530506,599614834669447,177,3,-23
OrientationDeg,1633966530516,599614844470801,177,3,-23
OrientationDeg,1633966530526,599614854272155,178,3,-23
OrientationDeg,1633966530536,599614864073457,179,3,-23
OrientationDeg,1633966530545,599614873874811,180,3,-23
OrientationDeg,1633966530555,599614883676165,180,2,-24
OrientationDeg,1633966530565,599614893477520,181,2,-24
OrientationDeg,1633966530575,599614903278822,182,2,-24
OrientationDeg,1633966530585,599614913080176,182,2,-24
OrientationDeg,1633966530594,599614922881530,183,1,-25
OrientationDeg,1633966530604,599614932682884,183,1,-25
OrientationDeg,1633966530614,599614942484186,184,1,-25
OrientationDeg,1633966530624,599614952285540,184,1,-25
OrientationDeg,1633966530634,599614962086895,184,1,-25
OrientationDeg,1633966530643,599614971888249,184,1,-24
OrientationDeg,1633966530653,599614981689551,184,1,-24
OrientationDeg,1633966530663,599614991490905,184,1,-24
OrientationDeg,1633966530673,599615001292259,185,1,-23
OrientationDeg,1633966530683,599615011093613,185,1,-23
OrientationDeg,1633966530692,599615020894915,185,1,-23
OrientationDeg,1633966530702,599615030696270,185,1,-22
OrientationDeg,1633966530711,599615040497624,185,2,-22
OrientationDeg,1633966530722,599615050298978,186,2,-21
OrientationDeg,1633966530731,599615060100280,186,2,-21
OrientationDeg,1633966530741,599615069901634,186,2,-20
OrientationDeg,1633966530751,599615079702988,186,3,-20
OrientationDeg,1633966530761,599615089504342,185,3,-19
OrientationDeg,1633966530771,599615099305645,185,3,-19
OrientationDeg,1633966530781,599615109106999,186,3,-18
OrientationDeg,1633966530790,599615118908353,186,3,-18
OrientationDeg,1633966530800,599615128709707,186,3,-18
OrientationDeg,1633966530810,599615138511009,186,3,-17
OrientationDeg,1633966530820,599615148312363,186,3,-17
OrientationDeg,1633966530830,599615158113717,187,3,-17
OrientationDeg,1633966530839,599615167915020,187,3,-17
OrientationDeg,1633966530849,599615177716374,187,3,-16
OrientationDeg,1633966530858,599615187517728,187,3,-16
OrientationDeg,1633966530869,599615197319082,187,3,-16
OrientationDeg,1633966530879,599615207120436,187,3,-16
OrientationDeg,1633966530888,599615216921738,187,3,-16
OrientationDeg,1633966530898,599615226723092,188,3,-16
OrientationDeg,1633966530908,599615236524447,188,3,-16
OrientationDeg,1633966530918,599615246325749,188,3,-16
OrientationDeg,1633966530928,599615256127103,188,3,-16
OrientationDeg,1633966530937,599615265928457,189,3,-15
OrientationDeg,1633966530947,599615275729811,189,3,-15
OrientationDeg,1633966530957,599615285531113,189,3,-15
OrientationDeg,1633966530967,599615295332467,189,3,-15
OrientationDeg,1633966530977,599615305133822,189,3,-15
OrientationDeg,1633966530986,599615314935176,190,3,-15
OrientationDeg,1633966530996,599615324736478,190,3,-15
OrientationDeg,1633966531006,599615334537832,190,2,-14
OrientationDeg,1633966531016,599615344339186,190,2,-14
OrientationDeg,1633966531026,599615354140540,190,2,-14
OrientationDeg,1633966531035,599615363941842,190,2,-14
OrientationDeg,1633966531045,599615373743197,190,2,-14
OrientationDeg,1633966531054,599615383544551,190,2,-14
OrientationDeg,1633966531065,599615393345853,190,2,-13
OrientationDeg,1633966531075,599615403147207,190,2,-13
OrientationDeg,1633966531084,599615412948561,190,2,-13
OrientationDeg,1633966531094,599615422749915,190,2,-13
OrientationDeg,1633966531104,599615432551217,190,2,-13
OrientationDeg,1633966531114,599615442352572,190,1,-12
OrientationDeg,1633966531124,599615452153926,190,1,-12
OrientationDeg,1633966531132,599615461955280,190,0,-12
OrientationDeg,1633966531143,599615471756582,190,0,-12
OrientationDeg,1633966531153,599615481557936,190,0,-13
OrientationDeg,1633966531163,599615491359290,190,0,-13
OrientationDeg,1633966531173,599615501160645,190,-1,-12
OrientationDeg,1633966531182,599615510961947,190,-1,-12
OrientationDeg,1633966531191,599615520763301,190,-2,-12
OrientationDeg,1633966531202,599615530564655,190,-2,-12
OrientationDeg,1633966531212,599615540365957,190,-2,-12
OrientationDeg,1633966531222,599615550167311,190,-3,-12
OrientationDeg,1633966531231,599615559968665,190,-3,-12
OrientationDeg,1633966531241,599615569770020,190,-4,-11
OrientationDeg,1633966531251,599615579571374,191,-4,-11
OrientationDeg,1633966531261,599615589372676,191,-4,-11
OrientationDeg,1633966531271,599615599174030,191,-5,-11
OrientationDeg,1633966531280,599615608975384,191,-5,-11
OrientationDeg,1633966531290,599615618776738,191,-5,-11
OrientationDeg,1633966531300,599615628578040,191,-5,-12
OrientationDeg,1633966531310,599615638379395,191,-5,-12
OrientationDeg,1633966531319,599615648180749,191,-5,-12
OrientationDeg,1633966531329,599615657982051,191,-5,-12
OrientationDeg,1633966531339,599615667783405,191,-5,-12
OrientationDeg,1633966531349,599615677584759,191,-5,-12
OrientationDeg,1633966531359,599615687386113,191,-6,-12
OrientationDeg,1633966531369,599615697187415,191,-6,-13
OrientationDeg,1633966531378,599615706988770,191,-6,-13
OrientationDeg,1633966531388,599615716790124,191,-6,-13
OrientationDeg,1633966531398,599615726591478,191,-7,-13
OrientationDeg,1633966531408,599615736392780,191,-7,-14
OrientationDeg,1633966531418,599615746194134,191,-7,-14
OrientationDeg,1633966531427,599615755995488,191,-7,-14
OrientationDeg,1633966531437,599615765796842,191,-7,-14
Status,1633966532000,24,0,1,2,1575420032,24,20,224,00,9,00,1,1,1,24.2
Status,1633966532000,24,1,1,5,1575420032,25,90,292,00,54,00,1,1,0,25.9
Status,1633966532000,24,2,1,7,1575420032,26,90,53,00,42,00,1,1,0,26.9
Status,1633966532000,24,3,1,9,1575420032,36,50,97,00,14,00,1,1,0,36.5
Status,1633966532000,24,4,1,13,1575420032,26,50,288,00,40,00,1,1,0,26.5
Status,1633966532000,24,5,1,14,1575420032,34,70,149,00,32,00,1,1,1,34.7
Status,1633966532000,24,6,1,15,1575420032,22,00,288,00,11,00,0,1,0,22.0
Status,1633966532000,24,7,1,20,1575420032,34,10,222,00,62,00,1,1,0,34.1
Status,1633966532000,24,8,1,28,1575420032,35,40,0,00,0,00,0,0,0,35.4
Status,1633966532000,24,9,1,30,1575420032,24,60,64,00,78,00,1,1,0,24.6
Status,1633966532000,24,10,3,14,1602000000,35,60,175,00,63,00,1,1,0,35.6
Status,1633966532000,24,11,3,13,1602000000,13,60,42,00,49,00,0,1,0,13.6
Status,1633966532000,24,12,3,5,1602000000,19,20,312,00,16,00,1,1,0,19.2
Status,1633966532000,24,13,3,3,1602000000,37,40,108,00,49,00,1,1,0,37.4
Status,1633966532000,24,14,3,4,1602000000,24,60,341,00,66,00,1,1,0,24.6
Status,1633966532000,24,15,5,5,1561097984,37,60,119,00,16,00,1,1,0,37.6
Status,1633966532000,24,16,5,7,1561097984,23,50,52,00,21,00,1,1,0,23.5
Status,1633966532000,24,17,5,10,1561097984,26,20,66,00,28,00,1,1,0,26.2
Status,1633966532000,24,18,5,19,1561097984,24,40,293,00,78,00,0,1,0,24.4
Status,1633966532000,24,19,5,20,1561097984,40,00,132,00,45,00,0,1,0,40.0
Status,1633966532000,24,20,5,22,1561097984,24,80,307,00,24,00,0,1,0,24.8
Status,1633966532000,24,21,6,7,1575420032,34,10,90,00,61,00,1,1,0,34.1
Status,1633966532000,24,22,6,27,1575420032,33,90,163,00,40,00,1,1,0,33.9
Status,1633966532000,24,23,6,30,1575420032,34,90,77,00,49,00,1,1,0,34.9
OrientationDeg,1633966531447,599615775598145,191,-7,-15
OrientationDeg,1633966531457,599615785399499,191,-7,-15
OrientationDeg,1633966531466,599615795200853,191,-7,-15
Fix,GPS,44.9929575,7.6473392,274.831177,17.690001,10.306913,264.600006,1633966533000,1.61059,0.85336745,599615790896560
Raw,1633966532435,234630915000000,18,,-1317767119520670973,0.9209613800048828,44.956846977584064,5.472582858292476,13.265571279048054,158,14,0.0,49359,66932370231125,12,32.6,-378.44635009765625,0.23890000581741333,16,0.0,0.0,1.59806246E9,,,,0,,3,-0.34,29.6,,,,,,
Raw,1633966532435,234630915000000,18,,-1317767119520670973,0.9209613800048828,44.956846977584064,5.472582858292476,13.265571279048054,158,2,0.0,81935,142550352924588,46,20.7,503.0223083496094,0.8644999861717224,16,0.0,0.0,1.57542003E9,,,,0,,1,3.7,17.2,,,,,,
Raw,1633966532435,234630915000000,18,,-1317767119520670973,0.9209613800048828,44.956846977584064,5.472582858292476,13.265571279048054,158,5,0.0,81935,142550365595559,35,22.4,-247.94314575195312,0.793999969959259,16,0.0,0.0,1.57542003E9,,,,0,,1,3.7,18.9,,,,,,
Raw,1633966532435,234630915000000,18,,-1317767119520670973,0.9209613800048828,44.956846977584064,5.472582858292476,13.265571279048054,158,7,0.0,81935,142550362278670,31,23.4,434.4499816894531,0.7294999957084656,16,0.0,0.0,1.57542003E9,,,,0,,1,3.7,19.9,,,,,,
Raw,1633966532435,234630915000000,18,,-1317767119520670973,0.9209613800048828,44.956846977584064,5.472582858292476,13.265571279048054,158,9,0.0,81935,142550354693740,11,33.0,589.70556640625,0.04390000179409981,16,0.0,0.0,1.57542003E9,,,,0,,1,3.7,29.5,,,,,,
Raw,1633966532435,234630915000000,18,,-1317767119520670973,0.9209613800048828,44.956846977584064,5.472582858292476,13.265571279048054,158,13,0.0,81935,142550363180819,31,23.0,-456.5716247558594,0.7310000061988831,16,0.0,0.0,1.57542003E9,,,,0,,1,3.7,19.5,,,,,,
Raw,1633966532435,234630915000000,18,,-1317767119520670973,0.9209613800048828,44.956846977584064,5.472582858292476,13.265571279048054,158,14,0.0,81935,142550360489798,13,31.2,-567.9409790039062,0.3865000009536743,16,0.0,0.0,1.57542003E9,,,,0,,1,3.7,27.7,,,,,,
Raw,1633966532435,234630915000000,18,,-1317767119520670973,0.9209613800048828,44.956846977584064,5.472582858292476,13.265571279048054,158,20,0.0,81935,142550367454900,14,30.6,192.04196166992188,0.03629999980330467,16,0.0,0.0,1.57542003E9,,,,0,,1,3.7,27.1,,,,,,
Raw,1633966532435,234630915000000,18,,-1317767119520670973,0.9209613800048828,44.956846977584064,5.472582858292476,13.265571279048054,158,5,0.0,16399,142536302975723,13,31.6,13.778833389282227,5.957299709320068,16,0.0,0.0,1.56109798E9,,,,0,,5,4.41,25.6,,,,,,
Raw,1633966532435,234630915000000,18,,-1317767119520670973,0.9209613800048828,44.956846977584064,5.472582858292476,13.265571279048054,158,7,0.0,16399,142536304073253,70,17.5,-0.7393520474433899,0.92249995470047,16,0.0,0.0,1.56109798E9,,,,0,,5,4.41,11.5,,,,,,
Raw,1633966532435,234630915000000,18,,-1317767119520670973,0.9209613800048828,44.956846977584064,5.472582858292476,13.265571279048054,158,20,0.0,16399,142536358036494,10,34.0,438.66644287109375,0.04910000413656235,16,0.0,0.0,1.56109798E9,,,,0,,5,4.41,28.0,,,,,,
Raw,1633966532435,234630915000000,18,,-1317767119520670973,0.9209613800048828,44.956846977584064,5.472582858292476,13.265571279048054,158,22,0.0,16399,142536352621555,63,18.8,-559.9103393554688,1.6145000457763672,16,0.0,0.0,1.56109798E9,,,,0,,5,4.41,12.8,,,,,,
Raw,1633966532435,234630915000000,18,,-1317767119520670973,0.9209613800048828,44.956846977584064,5.472582858292476,13.265571279048054,158,7,0.0,89103,142550355619301,17,28.1,198.68275451660156,0.055799998342990875,16,0.0,0.0,1.57542003E9,,,,0,,6,3.74,22.1,,,,,,
Raw,1633966532435,234630915000000,18,,-1317767119520670973,0.9209613800048828,44.956846977584064,5.472582858292476,13.265571279048054,158,27,0.0,89103,142550352015455,19,27.9,-488.9518737792969,0.06530000269412994,16,0.0,0.0,1.57542003E9,,,,0,,6,3.74,21.9,,,,,,
Raw,1633966532435,234630915000000,18,,-1317767119520670973,0.9209613800048828,44.956846977584064,5.472582858292476,13.265571279048054,158,30,0.0,89103,142550356577822,17,28.9,57.36402893066406,0.4104999899864197,16,0.0,0.0,1.57542003E9,,,,0,,6,3.74,22.9,,,,,,
OrientationDeg,1633966531477,599615805002155,191,-7,-16
OrientationDeg,1633966531486,599615814803509,191,-8,-16
OrientationDeg,1633966531496,599615824604863,191,-8,-16
OrientationDeg,1633966531506,599615834406217,191,-8,-17
OrientationDeg,1633966531516,599615844207520,191,-8,-17
OrientationDeg,1633966531526,599615854008874,191,-8,-17
OrientationDeg,1633966531535,599615863810228,191,-8,-17
OrientationDeg,1633966531545,599615873611582,191,-8,-18
OrientationDeg,1633966531555,599615883412884,191,-8,-18
OrientationDeg,1633966531565,599615893214238,191,-8,-18
OrientationDeg,1633966531575,599615903015592,191,-8,-18
OrientationDeg,1633966531584,599615912816947,191,-8,-18
OrientationDeg,1633966531594,599615922618249,191,-8,-18
OrientationDeg,1633966531604,599615932419603,190,-8,-19
OrientationDeg,1633966531614,599615942220957,190,-8,-19
OrientationDeg,1633966531624,599615952022259,190,-8,-19
OrientationDeg,1633966531633,599615961823613,190,-8,-19
OrientationDeg,1633966531643,599615971624967,190,-8,-19
OrientationDeg,1633966531653,599615981426322,190,-8,-19
OrientationDeg,1633966531663,599615991227624,190,-8,-19
OrientationDeg,1633966531673,599616001028978,190,-8,-18
OrientationDeg,1633966531682,599616010830332,190,-9,-18
OrientationDeg,1633966531692,599616020631686,190,-9,-18
OrientationDeg,1633966531702,599616030432988,190,-9,-18
OrientationDeg,1633966531711,599616040234342,191,-9,-18
OrientationDeg,1633966531722,599616050035936,191,-9,-18
OrientationDeg,1633966531731,599616059837238,191,-9,-18
OrientationDeg,1633966531741,599616069638592,191,-9,-18
OrientationDeg,1633966531751,599616079439946,191,-9,-18
OrientationDeg,1633966531761,599616089241300,191,-9,-19
OrientationDeg,1633966531771,599616099042602,191,-9,-19
OrientationDeg,1633966531780,599616108843956,191,-9,-19
OrientationDeg,1633966531790,599616118645311,191,-9,-19
OrientationDeg,1633966531800,599616128446665,191,-9,-19
OrientationDeg,1633966531810,599616138247967,191,-9,-19
OrientationDeg,1633966531820,599616148049321,191,-9,-19
OrientationDeg,1633966531829,599616157850675,192,-9,-19
OrientationDeg,1633966531839,599616167651977,192,-9,-19
OrientationDeg,1633966531849,599616177453331,192,-9,-19
OrientationDeg,1633966531859,599616187254686,192,-10,-19
OrientationDeg,1633966531869,599616197056040,192,-10,-19
OrientationDeg,1633966531878,599616206857342,192,-10,-19
OrientationDeg,1633966531888,599616216658696,193,-10,-19
OrientationDeg,1633966531898,599616226460050,193,-10,-19
OrientationDeg,1633966531908,599616236261404,193,-10,-19
OrientationDeg,1633966531918,599616246062706,193,-10,-19
OrientationDeg,1633966531927,599616255864061,194,-10,-19
OrientationDeg,1633966531937,599616265665415,194,-10,-19
OrientationDeg,1633966531947,599616275466717,194,-10,-19
OrientationDeg,1633966531957,599616285268071,194,-10,-19
OrientationDeg,1633966531967,599616295069425,194,-10,-19
OrientationDeg,1633966531976,599616304870779,194,-10,-18
OrientationDeg,1633966531986,599616314672081,194,-10,-18
OrientationDeg,1633966531996,599616324473436,194,-10,-18
OrientationDeg,1633966532006,599616334274790,194,-10,-18
OrientationDeg,1633966532016,599616344076144,194,-10,-18
OrientationDeg,1633966532025,599616353877446,194,-10,-18
OrientationDeg,1633966532035,599616363678800,194,-10,-18
OrientationDeg,1633966532045,599616373480154,194,-10,-18
OrientationDeg,1633966532055,599616383281456,194,-10,-18
OrientationDeg,1633966532065,599616393082811,194,-10,-18
OrientationDeg,1633966532074,599616402884165,194,-10,-18
OrientationDeg,1633966532084,599616412685467,194,-10,-18
OrientationDeg,1633966532094,599616422486821,194,-10,-18
OrientationDeg,1633966532104,599616432288175,194,-10,-18
OrientationDeg,1633966532114,599616442089529,194,-10,-18
OrientationDeg,1633966532123,599616451890831,194,-10,-18
OrientationDeg,1633966532133,599616461692186,194,-10,-17
OrientationDeg,1633966532143,599616471493540,194,-10,-17
OrientationDeg,1633966532153,599616481294894,194,-10,-17
OrientationDeg,1633966532163,599616491096196,194,-10,-17
OrientationDeg,1633966532172,599616500897550,194,-10,-17
OrientationDeg,1633966532181,599616510698904,194,-10,-17
OrientationDeg,1633966532192,599616520500206,194,-10,-17
OrientationDeg,1633966532202,599616530301561,194,-10,-17
OrientationDeg,1633966532212,599616540102915,194,-10,-17
OrientationDeg,1633966532221,599616549904269,194,-10,-17
OrientationDeg,1633966532230,599616559705571,194,-10,-18
OrientationDeg,1633966532241,599616569506925,194,-10,-18
OrientationDeg,1633966532251,599616579308279,194,-10,-18
OrientationDeg,1633966532261,599616589109581,194,-10,-18
OrientationDeg,1633966532270,599616598910936,194,-10,-18
OrientationDeg,1633966532280,599616608712290,194,-10,-18
OrientationDeg,1633966532290,599616618513644,194,-10,-18
OrientationDeg,1633966532300,599616628314946,194,-10,-18
OrientationDeg,1633966532310,599616638116300,194,-10,-18
OrientationDeg,1633966532319,599616647917654,194,-10,-18
OrientationDeg,1633966532329,599616657718956,194,-10,-18
OrientationDeg,1633966532339,599616667520311,194,-10,-18
OrientationDeg,1633966532349,599616677321665,194,-10,-18
OrientationDeg,1633966532359,599616687122967,194,-10,-18
OrientationDeg,1633966532368,599616696924321,194,-10,-18
OrientationDeg,1633966532378,599616706725675,194,-10,-18
OrientationDeg,1633966532388,599616716527029,194,-10,-18
OrientationDeg,1633966532398,599616726328331,194,-10,-18
OrientationDeg,1633966532408,599616736129686,194,-10,-18
OrientationDeg,1633966532417,599616745931040,194,-10,-18
OrientationDeg,1633966532427,599616755732342,194,-10,-18
OrientationDeg,1633966532437,599616765533696,194,-10,-18
Status,1633966533000,23,0,1,2,1575420032,25,30,224,00,9,00,1,1,1,25.3
Status,1633966533000,23,1,1,5,1575420032,24,10,292,00,54,00,1,1,0,24.1
Status,1633966533000,23,2,1,7,1575420032,26,00,53,00,42,00,1,1,0,26.0
Status,1633966533000,23,3,1,9,1575420032,34,40,97,00,14,00,1,1,0,34.4
Status,1633966533000,23,4,1,13,1575420032,24,80,288,00,40,00,1,1,0,24.8
Status,1633966533000,23,5,1,14,1575420032,32,40,149,00,32,00,1,1,1,32.4
Status,1633966533000,23,6,1,15,1575420032,22,00,288,00,11,00,0,1,0,22.0
Status,1633966533000,23,7,1,20,1575420032,35,60,222,00,62,00,1,1,0,35.6
Status,1633966533000,23,8,1,28,1575420032,37,70,0,00,0,00,0,0,0,37.7
Status,1633966533000,23,9,1,30,1575420032,21,30,64,00,78,00,1,1,0,21.3
Status,1633966533000,23,10,3,14,1602000000,37,00,175,00,63,00,1,1,0,37.0
Status,1633966533000,23,11,3,5,1602000000,19,20,312,00,16,00,1,1,0,19.2
Status,1633966533000,23,12,3,3,1602000000,36,40,108,00,49,00,1,1,0,36.4
Status,1633966533000,23,13,3,4,1602000000,21,70,341,00,66,00,1,1,0,21.7
Status,1633966533000,23,14,5,5,1561097984,37,30,119,00,16,00,1,1,0,37.3
Status,1633966533000,23,15,5,7,1561097984,23,50,52,00,21,00,1,1,0,23.5
Status,1633966533000,23,16,5,10,1561097984,26,20,66,00,28,00,1,1,0,26.2
Status,1633966533000,23,17,5,19,1561097984,24,10,293,00,78,00,0,1,0,24.1
Status,1633966533000,23,18,5,20,1561097984,39,30,132,00,45,00,0,1,0,39.3
Status,1633966533000,23,19,5,22,1561097984,26,30,307,00,24,00,0,1,0,26.3
Status,1633966533000,23,20,6,7,1575420032,33,40,90,00,61,00,1,1,0,33.4
Status,1633966533000,23,21,6,27,1575420032,36,10,163,00,40,00,1,1,0,36.1
Status,1633966533000,23,22,6,30,1575420032,33,80,77,00,49,00,1,1,0,33.8
OrientationDeg,1633966532447,599616775335050,194,-10,-18
OrientationDeg,1633966532457,599616785136352,194,-10,-18
OrientationDeg,1633966532466,599616794937706,194,-10,-18
OrientationDeg,1633966532476,599616804739061,194,-10,-18
OrientationDeg,1633966532486,599616814540415,194,-10,-18
Fix,GPS,44.9928692,7.6471153,275.206177,18.030001,10.031356,267.700012,1633966534000,1.099318,0.889141,599616792380883
Raw,1633966533435,234631915000000,18,,-1317767119520670967,0.4045886993408203,59.769587096525356,5.472582858292476,18.148382554445984,159,14,0.0,49359,66933370232419,10,34.0,-380.73748779296875,0.2371000051498413,16,0.0,0.0,1.59806246E9,,,,0,,3,-0.33,31.0,,,,,,
Raw,1633966533435,234631915000000,18,,-1317767119520670967,0.4045886993408203,59.769587096525356,5.472582858292476,18.148382554445984,159,2,0.0,81935,142551352922939,40,21.8,502.7558898925781,0.8044999837875366,16,0.0,0.0,1.57542003E9,,,,0,,1,3.63,18.3,,,,,,
Raw,1633966533435,234631915000000,18,,-1317767119520670967,0.4045886993408203,59.769587096525356,5.472582858292476,18.148382554445984,159,5,0.0,81935,142551365596431,46,20.6,-249.91268920898438,0.8539999723434448,16,0.0,0.0,1.57542003E9,,,,0,,1,3.63,17.1,,,,,,
Raw,1633966533435,234631915000000,18,,-1317767119520670967,0.4045886993408203,59.769587096525356,5.472582858292476,18.148382554445984,159,7,0.0,81935,142551362277225,35,22.5,433.00372314453125,0.7294999957084656,16,0.0,0.0,1.57542003E9,,,,0,,1,3.63,19.0,,,,,,
Raw,1633966533435,234631915000000,18,,-1317767119520670967,0.4045886993408203,59.769587096525356,5.472582858292476,18.148382554445984,159,9,0.0,81935,142551354691759,14,30.9,587.3966674804688,0.046800002455711365,16,0.0,0.0,1.57542003E9,,,,0,,1,3.63,27.4,,,,,,
Raw,1633966533435,234631915000000,18,,-1317767119520670967,0.4045886993408203,59.769587096525356,5.472582858292476,18.148382554445984,159,13,0.0,81935,142551363182362,40,21.3,-457.4469909667969,0.8510000109672546,16,0.0,0.0,1.57542003E9,,,,0,,1,3.63,17.8,,,,,,
Raw,1633966533435,234631915000000,18,,-1317767119520670967,0.4045886993408203,59.769587096525356,5.472582858292476,18.148382554445984,159,14,0.0,81935,142551360491693,17,28.9,-570.8031616210938,0.033299997448921204,16,0.0,0.0,1.57542003E9,,,,0,,1,3.63,25.4,,,,,,
Raw,1633966533435,234631915000000,18,,-1317767119520670967,0.4045886993408203,59.769587096525356,5.472582858292476,18.148382554445984,159,20,0.0,81935,142551367454283,12,32.1,189.4420166015625,0.03440000116825104,16,0.0,0.0,1.57542003E9,,,,0,,1,3.63,28.6,,,,,,
Raw,1633966533435,234631915000000,18,,-1317767119520670967,0.4045886993408203,59.769587096525356,5.472582858292476,18.148382554445984,159,30,0.0,81935,142551367167035,73,17.8,106.13629150390625,1.8369998931884766,16,0.0,0.0,1.57542003E9,,,,0,,1,3.63,14.3,,,,,,
Raw,1633966533435,234631915000000,18,,-1317767119520670967,0.4045886993408203,59.769587096525356,5.472582858292476,18.148382554445984,159,5,0.0,16399,142537302975685,13,31.3,12.549779891967773,5.957299709320068,16,0.0,0.0,1.56109798E9,,,,0,,5,4.46,25.3,,,,,,
Raw,1633966533435,234631915000000,18,,-1317767119520670967,0.4045886993408203,59.769587096525356,5.472582858292476,18.148382554445984,159,19,0.0,16399,142537364451410,63,18.1,-105.12242126464844,1.6024999618530273,16,0.0,0.0,1.56109798E9,,,,0,,5,4.46,12.100000000000001,,,,,,
Raw,1633966533435,234631915000000,18,,-1317767119520670967,0.4045886993408203,59.769587096525356,5.472582858292476,18.148382554445984,159,20,0.0,16399,142537358035047,11,33.3,436.34027099609375,0.04990000277757645,16,0.0,0.0,1.56109798E9,,,,0,,5,4.46,27.299999999999997,,,,,,
Raw,1633966533435,234631915000000,18,,-1317767119520670967,0.4045886993408203,59.769587096525356,5.472582858292476,18.148382554445984,159,22,0.0,16399,142537352623417,46,20.3,-561.7634887695312,0.7444999814033508,16,0.0,0.0,1.56109798E9,,,,0,,5,4.46,14.3,,,,,,
Raw,1633966533435,234631915000000,18,,-1317767119520670967,0.4045886993408203,59.769587096525356,5.472582858292476,18.148382554445984,159,7,0.0,89103,142551355618654,19,27.4,195.82778930664062,0.06379999965429306,16,0.0,0.0,1.57542003E9,,,,0,,6,3.65,21.4,,,,,,
Raw,1633966533435,234631915000000,18,,-1317767119520670967,0.4045886993408203,59.769587096525356,5.472582858292476,18.148382554445984,159,27,0.0,89103,142551352017071,14,30.1,-491.85552978515625,0.049800001084804535,16,0.0,0.0,1.57542003E9,,,,0,,6,3.65,24.1,,,,,,
Raw,1633966533435,234631915000000,18,,-1317767119520670967,0.4045886993408203,59.769587096525356,5.472582858292476,18.148382554445984,159,30,0.0,89103,142551356577622,19,27.8,55.62882614135742,0.06530000269412994,16,0.0,0.0,1.57542003E9,,,,0,,6,3.65,21.8,,,,,,
OrientationDeg,1633966532496,599616824341717,194,-10,-18
OrientationDeg,1633966532506,599616834143071,195,-11,-18
OrientationDeg,1633966532515,599616843944425,195,-11,-18
OrientationDeg,1633966532525,599616853745779,194,-11,-18
OrientationDeg,1633966532535,599616863547081,195,-11,-18
OrientationDeg,1633966532545,599616873348436,195,-10,-18
OrientationDeg,1633966532555,599616883149790,194,-10,-18
OrientationDeg,1633966532564,599616892951092,194,-10,-18
OrientationDeg,1633966532574,599616902752446,194,-10,-18
OrientationDeg,1633966532583,599616912553800,194,-10,-18
OrientationDeg,1633966532594,599616922355102,195,-10,-18
OrientationDeg,1633966532604,599616932156456,195,-10,-18
OrientationDeg,1633966532612,599616941957811,195,-10,-18
OrientationDeg,1633966532623,599616951759165,195,-10,-18
OrientationDeg,1633966532632,599616961560467,195,-10,-18
OrientationDeg,1633966532643,599616971361821,195,-10,-18
OrientationDeg,1633966532653,599616981163123,195,-10,-17
OrientationDeg,1633966532661,599616990964477,195,-10,-17
OrientationDeg,1633966532672,599617000765831,195,-10,-17
OrientationDeg,1633966532682,599617010567186,195,-10,-17
OrientationDeg,1633966532692,599617020368488,195,-10,-17
OrientationDeg,1633966532702,599617030169842,195,-10,-17
OrientationDeg,1633966532711,599617039971196,195,-10,-17
OrientationDeg,1633966532721,599617049772498,195,-10,-17
OrientationDeg,1633966532731,599617059573852,195,-10,-17
OrientationDeg,1633966532741,599617069375206,194,-10,-17
OrientationDeg,1633966532751,599617079176509,194,-10,-17
OrientationDeg,1633966532760,599617088977863,195,-10,-17
OrientationDeg,1633966532770,599617098779217,195,-10,-17
OrientationDeg,1633966532780,599617108580571,195,-10,-17
OrientationDeg,1633966532790,599617118381873,195,-10,-17
OrientationDeg,1633966532800,599617128183227,195,-10,-17
OrientationDeg,1633966532809,599617137984581,195,-10,-17
OrientationDeg,1633966532819,599617147785884,195,-10,-17
OrientationDeg,1633966532829,599617157587238,195,-10,-17
OrientationDeg,1633966532839,599617167388592,195,-10,-17
OrientationDeg,1633966532849,599617177189946,195,-10,-17
OrientationDeg,1633966532858,599617186991248,195,-10,-17
OrientationDeg,1633966532868,599617196792602,195,-10,-17
OrientationDeg,1633966532878,599617206593956,195,-10,-17
OrientationDeg,1633966532888,599617216395259,195,-10,-17
OrientationDeg,1633966532898,599617226196613,194,-10,-17
OrientationDeg,1633966532907,599617235997967,194,-10,-17
OrientationDeg,1633966532917,599617245799269,194,-10,-17
OrientationDeg,1633966532927,599617255600623,194,-10,-17
OrientationDeg,1633966532936,599617265401977,194,-10,-17
OrientationDeg,1633966532947,599617275203331,194,-10,-17
OrientationDeg,1633966532957,599617285004634,194,-10,-17
OrientationDeg,1633966532965,599617294805988,194,-10,-17
OrientationDeg,1633966532976,599617304607342,194,-10,-17
OrientationDeg,1633966532986,599617314408644,194,-10,-17
OrientationDeg,1633966532996,599617324209998,194,-10,-18
OrientationDeg,1633966533006,599617334011352,194,-10,-18
OrientationDeg,1633966533015,599617343812654,194,-10,-18
OrientationDeg,1633966533025,599617353614009,194,-10,-18
OrientationDeg,1633966533035,599617363415363,194,-10,-18
OrientationDeg,1633966533045,599617373216665,194,-10,-18
OrientationDeg,1633966533055,599617383018019,195,-10,-18
OrientationDeg,1633966533063,599617392819373,195,-10,-18
OrientationDeg,1633966533074,599617402620675,195,-10,-18
OrientationDeg,1633966533084,599617412422029,195,-10,-18
OrientationDeg,1633966533094,599617422223384,195,-10,-17
OrientationDeg,1633966533104,599617432024738,195,-10,-17
OrientationDeg,1633966533113,599617441826040,195,-10,-17
OrientationDeg,1633966533123,599617451627394,195,-10,-17
OrientationDeg,1633966533132,599617461428748,195,-10,-17
OrientationDeg,1633966533143,599617471230050,195,-10,-17
OrientationDeg,1633966533153,599617481031404,195,-10,-17
OrientationDeg,1633966533162,599617490832759,195,-10,-17
OrientationDeg,1633966533172,599617500634061,195,-10,-17
OrientationDeg,1633966533181,599617510435415,195,-10,-17
OrientationDeg,1633966533192,599617520236769,195,-10,-17
OrientationDeg,1633966533202,599617530038071,195,-10,-17
OrientationDeg,1633966533211,599617539839425,195,-10,-17
OrientationDeg,1633966533221,599617549640779,195,-10,-17
OrientationDeg,1633966533231,599617559442081,195,-10,-17
OrientationDeg,1633966533241,599617569243436,195,-10,-17
OrientationDeg,1633966533251,599617579044790,195,-10,-17
OrientationDeg,1633966533260,599617588846144,195,-10,-17
OrientationDeg,1633966533270,599617598647446,195,-10,-17
OrientationDeg,1633966533280,599617608448800,195,-10,-17
OrientationDeg,1633966533290,599617618250102,195,-10,-17
OrientationDeg,1633966533300,599617628051456,195,-10,-16
OrientationDeg,1633966533309,599617637852811,195,-10,-16
OrientationDeg,1633966533319,599617647654165,195,-10,-16
OrientationDeg,1633966533329,599617657455467,195,-10,-16
OrientationDeg,1633966533339,599617667256821,195,-10,-16
OrientationDeg,1633966533349,599617677058175,195,-10,-16
OrientationDeg,1633966533358,599617686859477,195,-10,-16
OrientationDeg,1633966533368,599617696660831,195,-10,-16
OrientationDeg,1633966533378,599617706462186,195,-10,-16
OrientationDeg,1633966533388,599617716263488,195,-10,-16
OrientationDeg,1633966533398,599617726064842,195,-10,-16
OrientationDeg,1633966533407,599617735866196,195,-10,-16
OrientationDeg,1633966533417,599617745667498,195,-10,-16
OrientationDeg,1633966533427,599617755468852,195,-10,-16
OrientationDeg,1633966533437,599617765270206,195,-10,-16
Status,1633966534000,23,0,1,2,1575420032,27,20,224,00,9,00,1,1,1,27.2
Status,1633966534000,23,1,1,5,1575420032,22,20,292,00,54,00,1,1,0,22.2
Status,1633966534000,23,2,1,7,1575420032,25,70,53,00,42,00,1,1,0,25.7
Status,1633966534000,23,3,1,9,1575420032,38,20,97,00,14,00,1,1,0,38.2
Status,1633966534000,23,4,1,13,1575420032,23,50,288,00,40,00,1,1,0,23.5
Status,1633966534000,23,5,1,14,1575420032,32,70,149,00,32,00,1,1,1,32.7
Status,1633966534000,23,6,1,15,1575420032,22,00,288,00,11,00,0,1,0,22.0
Status,1633966534000,23,7,1,20,1575420032,33,70,222,00,62,00,1,1,0,33.7
Status,1633966534000,23,8,1,28,1575420032,33,50,0,00,0,00,0,0,0,33.5
Status,1633966534000,23,9,1,30,1575420032,25,10,64,00,78,00,1,1,0,25.1
Status,1633966534000,23,10,3,14,1602000000,37,00,175,00,63,00,1,1,0,37.0
Status,1633966534000,23,11,3,5,1602000000,25,50,312,00,16,00,1,1,0,25.5
Status,1633966534000,23,12,3,3,1602000000,38,70,108,00,49,00,1,1,0,38.7
Status,1633966534000,23,13,3,4,1602000000,21,60,341,00,66,00,1,1,0,21.6
Status,1633966534000,23,14,5,5,1561097984,36,50,119,00,16,00,1,1,0,36.5
Status,1633966534000,23,15,5,7,1561097984,23,50,52,00,21,00,1,1,0,23.5
Status,1633966534000,23,16,5,10,1561097984,26,20,66,00,28,00,1,1,0,26.2
Status,1633966534000,23,17,5,19,1561097984,25,40,293,00,78,00,0,1,0,25.4
Status,1633966534000,23,18,5,20,1561097984,39,70,132,00,45,00,0,1,0,39.7
Status,1633966534000,23,19,5,22,1561097984,27,10,307,00,24,00,0,1,0,27.1
Status,1633966534000,23,20,6,7,1575420032,33,20,90,00,61,00,1,1,0,33.2
Status,1633966534000,23,21,6,27,1575420032,37,00,163,00,40,00,1,1,0,37.0
Status,1633966534000,23,22,6,30,1575420032,36,00,77,00,49,00,1,1,0,36.0
OrientationDeg,1633966533446,599617775071509,195,-10,-16
OrientationDeg,1633966533456,599617784872863,195,-10,-16
OrientationDeg,1633966533466,599617794674217,195,-10,-16
Fix,GPS,44.9928002,7.6468976,275.578308,18.360001,9.982948,247.199997,1633966535000,1.2382245,3.2639594,599617790674164
OrientationDeg,1633966533476,599617804475571,195,-10,-16
OrientationDeg,1633966533486,599617814276873,195,-10,-16
Raw,1633966534435,234632915000000,18,,-1317767119520671026,0.3065834045410156,49.47848356096074,-19.169765448904155,13.428466640212259,159,14,0.0,49359,66934370233696,10,34.0,-377.80755615234375,0.2371000051498413,16,0.0,0.0,1.59806246E9,,,,0,,3,-0.31,31.0,,,,,,
Raw,1633966534435,234632915000000,18,,-1317767119520671026,0.3065834045410156,49.47848356096074,-19.169765448904155,13.428466640212259,159,2,0.0,81935,142552352921194,31,23.7,504.22113037109375,0.684499979019165,16,0.0,0.0,1.57542003E9,,,,0,,1,3.45,20.2,,,,,,
Raw,1633966534435,234632915000000,18,,-1317767119520671026,0.3065834045410156,49.47848356096074,-19.169765448904155,13.428466640212259,159,5,0.0,81935,142552365597201,61,18.7,-234.79383850097656,1.0040000677108765,16,0.0,0.0,1.57542003E9,,,,0,,1,3.45,15.2,,,,,,
Raw,1633966534435,234632915000000,18,,-1317767119520671026,0.3065834045410156,49.47848356096074,-19.169765448904155,13.428466640212259,159,7,0.0,81935,142552362275858,35,22.2,434.6402587890625,0.7894999980926514,16,0.0,0.0,1.57542003E9,,,,0,,1,3.45,18.7,,,,,,
Raw,1633966534435,234632915000000,18,,-1317767119520671026,0.3065834045410156,49.47848356096074,-19.169765448904155,13.428466640212259,159,9,0.0,81935,142552354689815,10,34.7,589.9022827148438,0.04309999942779541,16,0.0,0.0,1.57542003E9,,,,0,,1,3.45,31.200000000000003,,,,,,
Raw,1633966534435,234632915000000,18,,-1317767119520671026,0.3065834045410156,49.47848356096074,-19.169765448904155,13.428466640212259,159,13,0.0,81935,142552363183867,46,20.0,-454.8589782714844,0.9210000038146973,16,0.0,0.0,1.57542003E9,,,,0,,1,3.45,16.5,,,,,,
Raw,1633966534435,234632915000000,18,,-1317767119520671026,0.3065834045410156,49.47848356096074,-19.169765448904155,13.428466640212259,159,14,0.0,81935,142552360493565,16,29.2,-567.7996826171875,0.02670000120997429,16,0.0,0.0,1.57542003E9,,,,0,,1,3.45,25.7,,,,,,
Raw,1633966534435,234632915000000,18,,-1317767119520671026,0.3065834045410156,49.47848356096074,-19.169765448904155,13.428466640212259,159,20,0.0,81935,142552367453639,14,30.2,192.40591430664062,0.03629999980330467,16,0.0,0.0,1.57542003E9,,,,0,,1,3.45,26.7,,,,,,
Raw,1633966534435,234632915000000,18,,-1317767119520671026,0.3065834045410156,49.47848356096074,-19.169765448904155,13.428466640212259,159,30,0.0,81935,142552367166632,40,21.6,107.35417938232422,0.796999990940094,16,0.0,0.0,1.57542003E9,,,,0,,1,3.45,18.1,,,,,,
Raw,1633966534435,234632915000000,18,,-1317767119520671026,0.3065834045410156,49.47848356096074,-19.169765448904155,13.428466640212259,159,5,0.0,16399,142538302975640,15,30.5,10.226102828979492,6.395599842071533,16,0.0,0.0,1.56109798E9,,,,0,,5,4.36,24.5,,,,,,
Raw,1633966534435,234632915000000,18,,-1317767119520671026,0.3065834045410156,49.47848356096074,-19.169765448904155,13.428466640212259,159,19,0.0,16399,142538364451753,53,19.4,-102.60669708251953,0.7924999594688416,16,0.0,0.0,1.56109798E9,,,,0,,5,4.36,13.399999999999999,,,,,,
Raw,1633966534435,234632915000000,18,,-1317767119520671026,0.3065834045410156,49.47848356096074,-19.169765448904155,13.428466640212259,159,20,0.0,16399,142538358033576,11,33.7,439.0186462402344,0.04990000277757645,16,0.0,0.0,1.56109798E9,,,,0,,5,4.36,27.700000000000003,,,,,,
Raw,1633966534435,234632915000000,18,,-1317767119520671026,0.3065834045410156,49.47848356096074,-19.169765448904155,13.428466640212259,159,22,0.0,16399,142538352625248,40,21.1,-558.5372314453125,0.684499979019165,16,0.0,0.0,1.56109798E9,,,,0,,5,4.36,15.100000000000001,,,,,,
Raw,1633966534435,234632915000000,18,,-1317767119520671026,0.3065834045410156,49.47848356096074,-19.169765448904155,13.428466640212259,159,7,0.0,89103,142552355617980,19,27.2,198.5179901123047,0.06379999965429306,16,0.0,0.0,1.57542003E9,,,,0,,6,3.51,21.2,,,,,,
Raw,1633966534435,234632915000000,18,,-1317767119520671026,0.3065834045410156,49.47848356096074,-19.169765448904155,13.428466640212259,159,27,0.0,89103,142552352018727,13,31.0,-489.21673583984375,0.04919999837875366,16,0.0,0.0,1.57542003E9,,,,0,,6,3.51,25.0,,,,,,
Raw,1633966534435,234632915000000,18,,-1317767119520671026,0.3065834045410156,49.47848356096074,-19.169765448904155,13.428466640212259,159,30,0.0,89103,142552356577440,14,30.0,58.42422103881836,0.049800001084804535,16,0.0,0.0,1.57542003E9,,,,0,,6,3.51,24.0,,,,,,
OrientationDeg,1633966533496,599617824078227,195,-10,-16
OrientationDeg,1633966533505,599617833879581,195,-10,-16
OrientationDeg,1633966533515,599617843680884,195,-10,-16
OrientationDeg,1633966533525,599617853482238,195,-10,-16
OrientationDeg,1633966533535,599617863283592,195,-10,-16
OrientationDeg,1633966533545,599617873084894,195,-10,-16
OrientationDeg,1633966533554,599617882886248,195,-10,-16
OrientationDeg,1633966533564,599617892687602,195,-10,-16
OrientationDeg,1633966533574,599617902488956,195,-10,-16
OrientationDeg,1633966533583,599617912290259,195,-10,-16
OrientationDeg,1633966533594,599617922091613,195,-10,-16
OrientationDeg,1633966533603,599617931892967,195,-10,-16
OrientationDeg,1633966533613,599617941694269,195,-10,-16
OrientationDeg,1633966533623,599617951495623,195,-10,-16
OrientationDeg,1633966533633,599617961296977,195,-11,-16
OrientationDeg,1633966533643,599617971098279,195,-11,-16
OrientationDeg,1633966533652,599617980899634,195,-11,-16
OrientationDeg,1633966533662,599617990700988,195,-11,-16
OrientationDeg,1633966533672,599618000502290,195,-11,-16
OrientationDeg,1633966533681,599618010303644,195,-11,-16
OrientationDeg,1633966533692,599618020104998,195,-11,-16
OrientationDeg,1633966533701,599618029906300,195,-11,-16
OrientationDeg,1633966533711,599618039707654,195,-11,-16
OrientationDeg,1633966533721,599618049509009,195,-11,-16
OrientationDeg,1633966533731,599618059310311,195,-11,-16
OrientationDeg,1633966533741,599618069111665,195,-11,-16
OrientationDeg,1633966533750,599618078913019,195,-11,-16
OrientationDeg,1633966533760,599618088714373,195,-11,-16
OrientationDeg,1633966533770,599618098515675,195,-11,-16
OrientationDeg,1633966533780,599618108317029,195,-11,-16
OrientationDeg,1633966533790,599618118118384,195,-11,-16
OrientationDeg,1633966533799,599618127919686,195,-11,-16
OrientationDeg,1633966533809,599618137721040,195,-11,-16
OrientationDeg,1633966533819,599618147522394,195,-10,-16
OrientationDeg,1633966533829,599618157323696,195,-10,-16
OrientationDeg,1633966533839,599618167125050,195,-10,-16
OrientationDeg,1633966533848,599618176926404,195,-10,-16
OrientationDeg,1633966533858,599618186727706,195,-10,-16
OrientationDeg,1633966533868,599618196529061,195,-10,-16
OrientationDeg,1633966533878,599618206330415,195,-10,-16
OrientationDeg,1633966533888,599618216131717,195,-10,-16
OrientationDeg,1633966533897,599618225933071,195,-10,-16
OrientationDeg,1633966533907,599618235734425,195,-10,-16
OrientationDeg,1633966533917,599618245535727,195,-10,-16
OrientationDeg,1633966533927,599618255337081,195,-10,-16
OrientationDeg,1633966533937,599618265138436,195,-10,-16
OrientationDeg,1633966533946,599618274939738,195,-10,-16
OrientationDeg,1633966533956,599618284741092,195,-10,-16
OrientationDeg,1633966533966,599618294542446,195,-10,-16
OrientationDeg,1633966533975,599618304343800,195,-10,-16
OrientationDeg,1633966533986,599618314145102,195,-10,-16
OrientationDeg,1633966533995,599618323946456,195,-10,-16
OrientationDeg,1633966534005,599618333747811,195,-10,-16
OrientationDeg,1633966534014,599618343549113,195,-10,-16
OrientationDeg,1633966534025,599618353350467,195,-10,-16
OrientationDeg,1633966534035,599618363151821,195,-10,-16
OrientationDeg,1633966534044,599618372953123,195,-10,-16
OrientationDeg,1633966534054,599618382754477,195,-10,-16
OrientationDeg,1633966534064,599618392555831,194,-10,-16
OrientationDeg,1633966534074,599618402357186,194,-10,-16
OrientationDeg,1633966534084,599618412158488,194,-10,-16
OrientationDeg,1633966534093,599618421959842,194,-10,-16
OrientationDeg,1633966534103,599618431761144,194,-10,-16
OrientationDeg,1633966534113,599618441562498,194,-10,-16
OrientationDeg,1633966534123,599618451363852,194,-10,-16
OrientationDeg,1633966534133,599618461165206,195,-10,-16
OrientationDeg,1633966534142,599618470966509,195,-10,-16
OrientationDeg,1633966534152,599618480767863,195,-10,-16
OrientationDeg,1633966534162,599618490569217,195,-10,-16
OrientationDeg,1633966534172,599618500370519,195,-10,-16
OrientationDeg,1633966534182,599618510171873,195,-10,-16
OrientationDeg,1633966534191,599618519973227,195,-10,-16
OrientationDeg,1633966534201,599618529774529,195,-10,-16
OrientationDeg,1633966534211,599618539575884,195,-10,-16
OrientationDeg,1633966534221,599618549377238,195,-10,-16
OrientationDeg,1633966534231,599618559178592,195,-10,-16
OrientationDeg,1633966534240,599618568979894,196,-10,-16
OrientationDeg,1633966534250,599618578781248,196,-10,-16
OrientationDeg,1633966534260,599618588582602,196,-10,-16
OrientationDeg,1633966534270,599618598383904,196,-10,-16
OrientationDeg,1633966534280,599618608185259,196,-10,-16
OrientationDeg,1633966534288,599618617986613,195,-10,-16
OrientationDeg,1633966534299,599618627787915,195,-10,-16
OrientationDeg,1633966534309,599618637589269,195,-10,-16
OrientationDeg,1633966534319,599618647390623,195,-10,-16
OrientationDeg,1633966534329,599618657191977,195,-9,-16
OrientationDeg,1633966534338,599618666993279,195,-9,-16
OrientationDeg,1633966534348,599618676794634,195,-9,-16
OrientationDeg,1633966534358,599618686595988,195,-9,-16
OrientationDeg,1633966534368,599618696397290,195,-9,-16
OrientationDeg,1633966534378,599618706198644,195,-9,-16
OrientationDeg,1633966534387,599618715999998,195,-9,-16
OrientationDeg,1633966534397,599618725801300,195,-9,-16
OrientationDeg,1633966534407,599618735602654,195,-9,-16
OrientationDeg,1633966534416,599618745404009,195,-9,-16
OrientationDeg,1633966534427,599618755205311,195,-9,-16
OrientationDeg,1633966534437,599618765006665,195,-9,-16
Status,1633966535000,23,0,1,2,1575420032,29,50,224,00,9,00,1,1,1,29.5
Status,1633966535000,23,1,1,5,1575420032,23,50,292,00,54,00,1,1,0,23.5
Status,1633966535000,23,2,1,7,1575420032,25,60,53,00,42,00,1,1,0,25.6
Status,1633966535000,23,3,1,9,1575420032,35,90,97,00,14,00,1,1,0,35.9
Status,1633966535000,23,4,1,13,1575420032,25,50,288,00,40,00,1,1,0,25.5
Status,1633966535000,23,5,1,14,1575420032,33,20,149,00,32,00,1,1,1,33.2
Status,1633966535000,23,6,1,15,1575420032,18,20,288,00,11,00,0,1,0,18.2
Status,1633966535000,23,7,1,20,1575420032,35,40,222,00,62,00,1,1,0,35.4
Status,1633966535000,23,8,1,28,1575420032,37,60,0,00,0,00,0,0,0,37.6
Status,1633966535000,23,9,1,30,1575420032,25,60,64,00,78,00,1,1,0,25.6
Status,1633966535000,23,10,3,14,1602000000,37,80,175,00,63,00,1,1,0,37.8
Status,1633966535000,23,11,3,5,1602000000,23,60,312,00,16,00,1,1,0,23.6
Status,1633966535000,23,12,3,3,1602000000,38,90,108,00,49,00,1,1,0,38.9
Status,1633966535000,23,13,3,4,1602000000,22,10,341,00,66,00,1,1,0,22.1
Status,1633966535000,23,14,5,5,1561097984,36,50,119,00,16,00,1,1,0,36.5
Status,1633966535000,23,15,5,7,1561097984,21,20,52,00,21,00,1,1,0,21.2
Status,1633966535000,23,16,5,10,1561097984,26,20,66,00,28,00,1,1,0,26.2
Status,1633966535000,23,17,5,19,1561097984,25,40,293,00,78,00,0,1,0,25.4
Status,1633966535000,23,18,5,20,1561097984,38,50,132,00,45,00,0,1,0,38.5
Status,1633966535000,23,19,5,22,1561097984,28,70,307,00,24,00,0,1,0,28.7
Status,1633966535000,23,20,6,7,1575420032,33,40,90,00,61,00,1,1,0,33.4
Status,1633966535000,23,21,6,27,1575420032,38,00,163,00,40,00,1,1,0,38.0
Status,1633966535000,23,22,6,30,1575420032,36,70,77,00,49,00,1,1,0,36.7
OrientationDeg,1633966534446,599618774808019,195,-9,-16
OrientationDeg,1633966534455,599618784609373,195,-9,-16
Raw,1633966535435,234633915000000,18,,-1317767119520671036,0.6506309509277344,48.846308345673606,-11.941925984854297,15.867809324765854,159,14,0.0,49359,66935370234923,10,34.8,-377.2227478027344,0.2371000051498413,16,0.0,0.0,1.59806246E9,,,,0,,3,-0.34,31.799999999999997,,,,,,
Raw,1633966535435,234633915000000,18,,-1317767119520671036,0.6506309509277344,48.846308345673606,-11.941925984854297,15.867809324765854,159,2,0.0,81935,142553352919525,21,26.0,505.30535888671875,0.1292000114917755,16,0.0,0.0,1.57542003E9,,,,0,,1,3.56,22.5,,,,,,
Raw,1633966535435,234633915000000,18,,-1317767119520671036,0.6506309509277344,48.846308345673606,-11.941925984854297,15.867809324765854,159,5,0.0,81935,142553365598078,46,20.0,-245.25999450683594,0.9239999651908875,16,0.0,0.0,1.57542003E9,,,,0,,1,3.56,16.5,,,,,,
Raw,1633966535435,234633915000000,18,,-1317767119520671036,0.6506309509277344,48.846308345673606,-11.941925984854297,15.867809324765854,159,7,0.0,81935,142553362274318,35,22.1,435.80108642578125,0.7894999980926514,16,0.0,0.0,1.57542003E9,,,,0,,1,3.56,18.6,,,,,,
Raw,1633966535435,234633915000000,18,,-1317767119520671036,0.6506309509277344,48.846308345673606,-11.941925984854297,15.867809324765854,159,9,0.0,81935,142553354687843,12,32.4,590.4480590820312,0.04490000009536743,16,0.0,0.0,1.57542003E9,,,,0,,1,3.56,28.9,,,,,,
Raw,1633966535435,234633915000000,18,,-1317767119520671036,0.6506309509277344,48.846308345673606,-11.941925984854297,15.867809324765854,159,13,0.0,81935,142553363185495,35,22.0,-455.7153015136719,0.7910000085830688,16,0.0,0.0,1.57542003E9,,,,0,,1,3.56,18.5,,,,,,
Raw,1633966535435,234633915000000,18,,-1317767119520671036,0.6506309509277344,48.846308345673606,-11.941925984854297,15.867809324765854,159,14,0.0,81935,142553360495473,16,29.7,-567.3402099609375,0.02670000120997429,16,0.0,0.0,1.57542003E9,,,,0,,1,3.56,26.2,,,,,,
Raw,1633966535435,234633915000000,18,,-1317767119520671036,0.6506309509277344,48.846308345673606,-11.941925984854297,15.867809324765854,159,15,0.0,81935,142553354952445,255,14.7,-655.7234497070312,8.877500534057617,16,0.0,0.0,1.57542003E9,,,,0,,1,3.56,11.2,,,,,,
Raw,1633966535435,234633915000000,18,,-1317767119520671036,0.6506309509277344,48.846308345673606,-11.941925984854297,15.867809324765854,159,20,0.0,81935,142553367453004,13,31.9,193.00894165039062,0.0357000008225441,16,0.0,0.0,1.57542003E9,,,,0,,1,3.56,28.4,,,,,,
Raw,1633966535435,234633915000000,18,,-1317767119520671036,0.6506309509277344,48.846308345673606,-11.941925984854297,15.867809324765854,159,30,0.0,81935,142553367166312,35,22.1,108.91458892822266,0.796999990940094,16,0.0,0.0,1.57542003E9,,,,0,,1,3.56,18.6,,,,,,
Raw,1633966535435,234633915000000,18,,-1317767119520671036,0.6506309509277344,48.846308345673606,-11.941925984854297,15.867809324765854,159,7,0.0,16399,142539304073278,101,15.2,-2.2852699756622314,2.5824999809265137,16,0.0,0.0,1.56109798E9,,,,0,,5,4.37,9.2,,,,,,
Raw,1633966535435,234633915000000,18,,-1317767119520671036,0.6506309509277344,48.846308345673606,-11.941925984854297,15.867809324765854,159,20,0.0,16399,142539358032115,12,32.5,439.6512145996094,0.05090000107884407,16,0.0,0.0,1.56109798E9,,,,0,,5,4.37,26.5,,,,,,
Raw,1633966535435,234633915000000,18,,-1317767119520671036,0.6506309509277344,48.846308345673606,-11.941925984854297,15.867809324765854,159,22,0.0,16399,142539352627098,35,22.7,-557.8363037109375,0.6345000267028809,16,0.0,0.0,1.56109798E9,,,,0,,5,4.37,16.7,,,,,,
Raw,1633966535435,234633915000000,18,,-1317767119520671036,0.6506309509277344,48.846308345673606,-11.941925984854297,15.867809324765854,159,7,0.0,89103,142553355617322,19,27.4,199.2278594970703,0.06379999965429306,16,0.0,0.0,1.57542003E9,,,,0,,6,3.6,21.4,,,,,,
Raw,1633966535435,234633915000000,18,,-1317767119520671036,0.6506309509277344,48.846308345673606,-11.941925984854297,15.867809324765854,159,27,0.0,89103,142553352020349,12,32.0,-488.5057678222656,0.0478999987244606,16,0.0,0.0,1.57542003E9,,,,0,,6,3.6,26.0,,,,,,
Raw,1633966535435,234633915000000,18,,-1317767119520671036,0.6506309509277344,48.846308345673606,-11.941925984854297,15.867809324765854,159,30,0.0,89103,142553356577231,14,30.7,59.1241340637207,0.049800001084804535,16,0.0,0.0,1.57542003E9,,,,0,,6,3.6,24.7,,,,,,
OrientationDeg,1633966534466,599618794410675,195,-9,-16
OrientationDeg,1633966534476,599618804212029,195,-9,-16
OrientationDeg,1633966534486,599618814013384,195,-9,-16
OrientationDeg,1633966534495,599618823814686,195,-9,-16
OrientationDeg,1633966534505,599618833616040,195,-9,-16
OrientationDeg,1633966534515,599618843417394,195,-9,-16
OrientationDeg,1633966534525,599618853218748,195,-9,-16
OrientationDeg,1633966534535,599618863020050,194,-9,-16
OrientationDeg,1633966534544,599618872821404,195,-9,-16
OrientationDeg,1633966534554,599618882622759,194,-9,-16
OrientationDeg,1633966534563,599618892424061,194,-10,-16
Fix,GPS,44.9927320,7.6466803,275.348145,18.410000,10.022625,247.000000,1633966536000,1.2382245,3.2718463,599618793264007
OrientationDeg,1633966534574,599618902225415,194,-10,-16
OrientationDeg,1633966534584,599618912026769,194,-10,-16
OrientationDeg,1633966534593,599618921828071,194,-10,-16
OrientationDeg,1633966534603,599618931629425,194,-10,-16
OrientationDeg,1633966534613,599618941430779,194,-10,-16
OrientationDeg,1633966534623,599618951232134,194,-10,-16
OrientationDeg,1633966534633,599618961033436,194,-10,-16
OrientationDeg,1633966534642,599618970834790,194,-10,-16
OrientationDeg,1633966534652,599618980636144,194,-10,-16
OrientationDeg,1633966534661,599618990437446,194,-10,-16
OrientationDeg,1633966534672,599619000238800,194,-10,-16
OrientationDeg,1633966534682,599619010040154,194,-10,-16
OrientationDeg,1633966534691,599619019841509,194,-9,-16
OrientationDeg,1633966534701,599619029642811,194,-9,-16
OrientationDeg,1633966534710,599619039444165,194,-9,-15
OrientationDeg,1633966534721,599619049245519,194,-9,-15
OrientationDeg,1633966534731,599619059046821,194,-9,-15
OrientationDeg,1633966534740,599619068848175,194,-9,-15
OrientationDeg,1633966534750,599619078649529,194,-9,-15
OrientationDeg,1633966534760,599619088450884,194,-9,-15
OrientationDeg,1633966534770,599619098252238,194,-9,-15
OrientationDeg,1633966534780,599619108053540,193,-9,-15
OrientationDeg,1633966534789,599619117854894,193,-9,-15
OrientationDeg,1633966534798,599619127656248,193,-9,-15
OrientationDeg,1633966534809,599619137457550,193,-9,-16
OrientationDeg,1633966534819,599619147258904,192,-9,-16
OrientationDeg,1633966534829,599619157060259,192,-9,-16
OrientationDeg,1633966534838,599619166861561,192,-9,-16
OrientationDeg,1633966534848,599619176662915,191,-9,-16
OrientationDeg,1633966534858,599619186464269,191,-9,-16
OrientationDeg,1633966534868,599619196265623,191,-9,-16
OrientationDeg,1633966534878,599619206066925,191,-9,-15
