# 
# Header Description:
# 
# Version: v3.0.6.1 Platform: 11 Manufacturer: Xiaomi Model: M2007J20CG
# 
# Raw,utcTimeMillis,TimeNanos,LeapSecond,TimeUncertaintyNanos,FullBiasNanos,BiasNanos,BiasUncertaintyNanos,DriftNanosPerSecond,DriftUncertaintyNanosPerSecond,HardwareClockDiscontinuityCount,Svid,TimeOffsetNanos,State,ReceivedSvTimeNanos,ReceivedSvTimeUncertaintyNanos,Cn0DbHz,PseudorangeRateMetersPerSecond,PseudorangeRateUncertaintyMetersPerSecond,AccumulatedDeltaRangeState,AccumulatedDeltaRangeMeters,AccumulatedDeltaRangeUncertaintyMeters,CarrierFrequencyHz,CarrierCycles,CarrierPhase,CarrierPhaseUncertainty,MultipathIndicator,SnrInDb,ConstellationType,AgcDb,BasebandCn0DbHz,FullInterSignalBiasNanos,FullInterSignalBiasUncertaintyNanos,SatelliteInterSignalBiasNanos,SatelliteInterSignalBiasUncertaintyNanos,CodeType,ChipsetElapsedRealtimeNanos
# 
# UncalAccel,utcTimeMillis,elapsedRealtimeNanos,UncalAccelXMps2,UncalAccelYMps2,UncalAccelZMps2,BiasXMps2,BiasYMps2,BiasZMps2
# 
# Accel,utcTimeMillis,elapsedRealtimeNanos,AccelXMps2,AccelYMps2,AccelZMps2
# 
# UncalGyro,utcTimeMillis,elapsedRealtimeNanos,UncalGyroXRadPerSec,UncalGyroYRadPerSec,UncalGyroZRadPerSec,DriftXRadPerSec,DriftYRadPerSec,DriftZRadPerSec
# 
# Gyro,utcTimeMillis,elapsedRealtimeNanos,GyroXRadPerSec,GyroYRadPerSec,GyroZRadPerSec
# 
# UncalMag,utcTimeMillis,elapsedRealtimeNanos,UncalMagXMicroT,UncalMagYMicroT,UncalMagZMicroT,BiasXMicroT,BiasYMicroT,BiasZMicroT
# 
# Mag,utcTimeMillis,elapsedRealtimeNanos,MagXMicroT,MagYMicroT,MagZMicroT
# 
# OrientationDeg,utcTimeMillis,elapsedRealtimeNanos,yawDeg,rollDeg,pitchDeg
# 
# Fix,Provider,LatitudeDegrees,LongitudeDegrees,AltitudeMeters,SpeedMps,AccuracyMeters,BearingDegrees,UnixTimeMillis,SpeedAccuracyMps,BearingAccuracyDegrees,elapsedRealtimeNanos,VerticalAccuracyMeters
# 
# Nav,Svid,Type,Status,MessageId,Sub-messageId,Data(Bytes)
# 
# Status,UnixTimeMillis,SignalCount,SignalIndex,ConstellationType,Svid,CarrierFrequencyHz,Cn0DbHz,AzimuthDegrees,ElevationDegrees,UsedInFix,HasAlmanacData,HasEphemerisData,BasebandCn0DbHz
# 
Fix,FLP,45.0641391000,7.6615720000,305.79998779296875,0.0042109056,12.8,,1679068444318,,,2063026121352389,1.5148448
Status,,28,0,1,10,1575420030,25.00,153.0,33.0,0,1,1,25.0
Status,,28,1,1,18,1575420030,18.70,52.0,48.0,1,1,1,18.7
Status,,28,2,1,23,1575420030,14.90,111.0,47.0,0,1,1,14.9
Status,,28,3,1,26,1575420030,24.20,180.0,52.0,0,1,1,24.2
Status,,28,4,1,27,1575420030,17.80,298.0,50.0,1,1,1,17.8
Status,,28,5,1,2,1575420030,0.00,54.0,9.0,0,1,1,0.0
Status,,28,6,1,8,1575420030,0.00,286.0,18.0,0,1,1,0.0
Status,,28,7,1,16,1575420030,0.00,270.0,71.0,0,1,1,0.0
Status,,28,8,3,14,1598062460,16.20,192.0,32.0,0,1,0,16.2
Status,,28,9,3,16,1601437440,20.90,327.0,22.0,1,1,0,20.9
Status,,28,10,3,1,1602562560,16.30,85.0,22.0,0,1,0,16.3
Status,,28,11,3,24,1603124990,20.40,40.0,45.0,1,1,0,20.4
Status,,28,12,3,17,1604249980,20.00,296.0,59.0,0,1,0,20.0
Status,,28,13,3,8,1605374980,30.50,32.0,16.0,1,1,0,30.5
Status,,28,14,3,18,1600312450,0.00,258.0,17.0,0,1,0,0.0
Status,,28,15,3,15,1602000000,0.00,268.0,58.0,0,1,0,0.0
Status,,28,16,5,8,1561097980,21.00,33.0,15.0,1,1,0,21.0
Status,,28,17,5,13,1561097980,21.20,39.0,25.0,1,1,0,21.2
Status,,28,18,5,23,1561097980,19.10,187.0,16.0,0,1,0,19.1
Status,,28,19,5,28,1561097980,17.70,306.0,73.0,0,1,0,17.7
Status,,28,20,5,5,1561097980,0.00,118.0,18.0,0,1,0,0.0
Status,,28,21,5,14,1561097980,0.00,98.0,26.0,0,1,0,0.0
Status,,28,22,5,27,1561097980,0.00,267.0,26.0,0,1,0,0.0
Status,,28,23,6,10,1575420030,17.60,344.0,85.0,0,1,0,17.6
Status,,28,24,6,24,1575420030,18.70,175.0,53.0,1,1,0,18.7
Status,,28,25,6,25,1575420030,15.50,292.0,56.0,0,1,0,15.5
Status,,28,26,6,11,1575420030,0.00,241.0,59.0,0,1,0,0.0
Status,,28,27,6,12,1575420030,0.00,47.0,59.0,0,1,0,0.0
Fix,FLP,45.0641395000,7.6615724000,305.79998779296875,0.0028409602,12.595,,1679068445322,,,2063027124207285,1.5248237
Fix,GPS,45.0641954300,7.6616015600,304.2020263671875,0.0,18.59201,,1679068445000,1.401856,,2063027165047160,13.08566
Raw,1679068444447,4283047373000000,18,,-1358820615074279216,-0.17031097412109375,201.168775674887,-1.9708262625623665,28.575190336399626,769,14,0.0,49359,68044375644096,122,16.2,740.7660522460938,6.334000110626221,16,0.0,0.0,1598062460,,,,0,,3,-0.05,13.2,4911.11767578125,17.643539428710938,,,,
Raw,1679068444447,4283047373000000,18,,-1358820615074279216,-0.17031097412109375,201.168775674887,-1.9708262625623665,28.575190336399626,769,16,0.0,49359,68044372790803,70,20.9,-632.1066284179688,2.134500026702881,16,0.0,0.0,1601437440,,,,0,,3,-0.05,17.9,4911.11767578125,17.643539428710938,,,,
Raw,1679068444447,4283047373000000,18,,-1358820615074279216,-0.17031097412109375,201.168775674887,-1.9708262625623665,28.575190336399626,769,8,0.0,49359,68044370390457,19,30.5,166.42416381835938,0.2563000023365021,16,0.0,1867.4108932046968,1605374980,,,,0,,3,-0.05,27.5,4911.11767578125,17.643539428710938,,,,
Raw,1679068444447,4283047373000000,18,,-1358820615074279216,-0.17031097412109375,201.168775674887,-1.9708262625623665,28.575190336399626,769,8,0.0,16399,489248314560436,80,21.0,248.0958251953125,1.8624999523162842,16,0.0,0.0,1561097980,,,,0,,5,0.0,16.7,-2591.36865234375,27.485570907592773,,,,
Status,1679068445000,28,0,1,10,1575420030,25.00,153.0,33.0,0,1,1,25.0
Status,1679068445000,28,1,1,18,1575420030,18.70,52.0,48.0,1,1,1,18.7
Status,1679068445000,28,2,1,23,1575420030,14.90,111.0,47.0,0,1,1,14.9
Status,1679068445000,28,3,1,26,1575420030,24.20,180.0,52.0,0,1,1,24.2
Status,1679068445000,28,4,1,27,1575420030,17.80,298.0,50.0,0,1,1,17.8
Status,1679068445000,28,5,1,2,1575420030,0.00,54.0,9.0,0,1,1,0.0
Status,1679068445000,28,6,1,8,1575420030,0.00,286.0,18.0,0,1,1,0.0
Status,1679068445000,28,7,1,16,1575420030,0.00,270.0,71.0,0,1,1,0.0
Status,1679068445000,28,8,3,14,1598062460,16.20,192.0,32.0,1,1,0,16.2
Status,1679068445000,28,9,3,16,1601437440,20.90,327.0,22.0,1,1,0,20.9
Status,1679068445000,28,10,3,1,1602562560,16.30,85.0,22.0,0,1,0,16.3
Status,1679068445000,28,11,3,24,1603124990,20.40,40.0,45.0,1,1,0,20.4
Status,1679068445000,28,12,3,17,1604249980,20.00,296.0,59.0,0,1,0,20.0
Status,1679068445000,28,13,3,8,1605374980,23.60,32.0,16.0,1,1,0,23.6
Status,1679068445000,28,14,3,18,1600312450,0.00,258.0,17.0,0,1,0,0.0
Status,1679068445000,28,15,3,15,1602000000,0.00,268.0,58.0,0,1,0,0.0
Status,1679068445000,28,16,5,8,1561097980,21.00,33.0,15.0,1,1,0,21.0
Status,1679068445000,28,17,5,13,1561097980,21.20,39.0,25.0,1,1,0,21.2
Status,1679068445000,28,18,5,23,1561097980,19.10,187.0,16.0,0,1,0,19.1
Status,1679068445000,28,19,5,28,1561097980,17.70,306.0,73.0,0,1,0,17.7
Status,1679068445000,28,20,5,5,1561097980,0.00,118.0,18.0,0,1,0,0.0
Status,1679068445000,28,21,5,14,1561097980,0.00,98.0,26.0,0,1,0,0.0
Status,1679068445000,28,22,5,27,1561097980,0.00,267.0,26.0,0,1,0,0.0
Status,1679068445000,28,23,6,10,1575420030,17.60,344.0,85.0,0,1,0,17.6
Status,1679068445000,28,24,6,24,1575420030,18.70,175.0,53.0,1,1,0,18.7
Status,1679068445000,28,25,6,25,1575420030,15.50,292.0,56.0,0,1,0,15.5
Status,1679068445000,28,26,6,11,1575420030,0.00,241.0,59.0,0,1,0,0.0
Status,1679068445000,28,27,6,12,1575420030,0.00,47.0,59.0,0,1,0,0.0
Fix,FLP,45.0641401000,7.6615729000,305.79998779296875,0.0028793165,12.356,,1679068446324,,,2063028127086035,1.5248237
Fix,GPS,45.0641954200,7.6616015500,304.2073974609375,0.0,21.930664,,1679068446000,1.5261061,,2063028169518462,13.069453
Raw,1679068445447,4283048373000000,18,,-1358820615074279216,-0.40872955322265625,226.88914032187313,-0.2532861752564326,29.056003160008213,769,8,0.0,49359,68045370389922,46,23.6,168.1807098388672,1.131500005722046,16,0.0,0.0,1605374980,,,,0,,3,-0.06,20.6,4911.11767578125,17.643539428710938,,,,
Fix,FLP,45.0641410000,7.6615735000,305.79998779296875,0.0023412253,12.38,,1679068446826,,,2063028628546087,1.5348684
Status,1679068446000,28,0,1,10,1575420030,25.00,153.0,33.0,0,1,1,25.0
Status,1679068446000,28,1,1,18,1575420030,17.30,52.0,48.0,1,1,1,17.3
Status,1679068446000,28,2,1,23,1575420030,12.30,111.0,47.0,0,1,1,12.3
Status,1679068446000,28,3,1,26,1575420030,14.80,180.0,52.0,0,1,1,14.8
Status,1679068446000,28,4,1,27,1575420030,17.00,298.0,50.0,0,1,1,17.0
Status,1679068446000,28,5,1,2,1575420030,0.00,54.0,9.0,0,1,1,0.0
Status,1679068446000,28,6,1,8,1575420030,0.00,286.0,18.0,0,1,1,0.0
Status,1679068446000,28,7,1,16,1575420030,0.00,270.0,71.0,0,1,1,0.0
Status,1679068446000,28,8,3,14,1598062460,20.40,192.0,32.0,1,1,0,20.4
Status,1679068446000,28,9,3,16,1601437440,26.90,327.0,22.0,1,1,0,26.9
Status,1679068446000,28,10,3,1,1602562560,10.30,85.0,22.0,0,1,0,10.3
Status,1679068446000,28,11,3,24,1603124990,24.30,40.0,45.0,1,1,0,24.3
Status,1679068446000,28,12,3,17,1604249980,21.30,296.0,59.0,0,1,0,21.3
Status,1679068446000,28,13,3,8,1605374980,32.10,32.0,16.0,1,1,0,32.1
Status,1679068446000,28,14,3,18,1600312450,0.00,258.0,17.0,0,1,0,0.0
Status,1679068446000,28,15,3,15,1602000000,0.00,268.0,58.0,0,1,0,0.0
Status,1679068446000,28,16,5,8,1561097980,27.40,33.0,15.0,1,1,0,27.4
Status,1679068446000,28,17,5,13,1561097980,25.80,39.0,25.0,1,1,0,25.8
Status,1679068446000,28,18,5,23,1561097980,19.10,187.0,16.0,0,1,0,19.1
Status,1679068446000,28,19,5,28,1561097980,17.70,306.0,73.0,0,1,0,17.7
Status,1679068446000,28,20,5,5,1561097980,0.00,118.0,18.0,0,1,0,0.0
Status,1679068446000,28,21,5,14,1561097980,0.00,98.0,26.0,0,1,0,0.0
Status,1679068446000,28,22,5,27,1561097980,0.00,267.0,26.0,0,1,0,0.0
Status,1679068446000,28,23,6,10,1575420030,17.60,344.0,85.0,0,1,0,17.6
Status,1679068446000,28,24,6,24,1575420030,18.70,175.0,53.0,1,1,0,18.7
Status,1679068446000,28,25,6,25,1575420030,15.50,292.0,56.0,0,1,0,15.5
Status,1679068446000,28,26,6,11,1575420030,0.00,241.0,59.0,0,1,0,0.0
Status,1679068446000,28,27,6,12,1575420030,0.00,47.0,59.0,0,1,0,0.0
Fix,GPS,45.0642035000,7.6616072200,300.780517578125,0.0,14.895748,,1679068447000,0.88549423,,2063029165920805,12.040926
Fix,FLP,45.0641414000,7.6615737000,305.79998779296875,0.002120618,12.358,,1679068447327,,,2063029129935097,1.5448323
Raw,1679068446447,4283049373000000,18,,-1358820615074279214,-0.382171630859375,254.1890717111528,2.0154996560755443,30.635582684110876,769,14,0.0,49359,68046375639163,70,20.4,742.8296508789062,2.1540000438690186,16,0.0,0.0,1598062460,,,,0,,3,-0.16,17.4,4911.11767578125,17.643539428710938,,,,
Raw,1679068446447,4283049373000000,18,,-1358820615074279214,-0.382171630859375,254.1890717111528,2.0154996560755443,30.635582684110876,769,16,0.0,49359,68046372795072,31,26.9,-630.8148803710938,1.6944999694824219,16,0.0,0.0,1601437440,,,,0,,3,-0.16,23.9,4911.11767578125,17.643539428710938,,,,
Raw,1679068446447,4283049373000000,18,,-1358820615074279214,-0.382171630859375,254.1890717111528,2.0154996560755443,30.635582684110876,769,1,0.0,49359,68046372763478,181,10.3,-439.8125305175781,10.764500617980957,16,0.0,0.0,1602562560,,,,0,,3,-0.16,7.300000000000001,4911.11767578125,17.643539428710938,,,,
Raw,1679068446447,4283049373000000,18,,-1358820615074279214,-0.382171630859375,254.1890717111528,2.0154996560755443,30.635582684110876,769,24,0.0,49359,68046378768320,40,24.3,435.5721435546875,3.3385000228881836,16,0.0,0.0,1603124990,,,,0,,3,-0.16,21.3,4911.11767578125,17.643539428710938,,,,
Raw,1679068446447,4283049373000000,18,,-1358820615074279214,-0.382171630859375,254.1890717111528,2.0154996560755443,30.635582684110876,769,17,0.0,49359,68046381782824,61,21.3,-164.72933959960938,8.027999877929688,16,0.0,0.0,1604249980,,,,0,,3,-0.16,18.3,4911.11767578125,17.643539428710938,,,,
Raw,1679068446447,4283049373000000,18,,-1358820615074279214,-0.382171630859375,254.1890717111528,2.0154996560755443,30.635582684110876,769,8,0.0,49359,68046370389354,16,32.1,166.86245727539062,0.24170000851154327,16,0.0,1867.4108932046968,1605374980,,,,0,,3,-0.16,29.1,4911.11767578125,17.643539428710938,,,,
Raw,1679068446447,4283049373000000,18,,-1358820615074279214,-0.382171630859375,254.1890717111528,2.0154996560755443,30.635582684110876,769,18,0.0,16399,489264375631114,106,17.3,427.5993957519531,4.499000072479248,16,0.0,0.0,1575420030,,,,0,,1,-0.14,14.3,0.0,0.0,,,,
Raw,1679068446447,4283049373000000,18,,-1358820615074279214,-0.382171630859375,254.1890717111528,2.0154996560755443,30.635582684110876,769,23,0.0,16399,489264375370745,181,12.3,-245.4122314453125,10.234001159667969,16,0.0,0.0,1575420030,,,,0,,1,-0.14,9.3,0.0,0.0,,,,
Raw,1679068446447,4283049373000000,18,,-1358820615074279214,-0.382171630859375,254.1890717111528,2.0154996560755443,30.635582684110876,769,26,0.0,16399,489264376424221,159,14.8,449.6925048828125,9.390501022338867,16,0.0,0.0,1575420030,,,,0,,1,-0.14,11.8,0.0,0.0,,,,
Raw,1679068446447,4283049373000000,18,,-1358820615074279214,-0.382171630859375,254.1890717111528,2.0154996560755443,30.635582684110876,769,27,0.0,16399,489264377224994,106,17.0,-355.5447082519531,6.767000198364258,16,0.0,0.0,1575420030,,,,0,,1,-0.14,14.0,0.0,0.0,,,,
Raw,1679068446447,4283049373000000,18,,-1358820615074279214,-0.382171630859375,254.1890717111528,2.0154996560755443,30.635582684110876,769,8,0.0,16399,489250314558797,31,27.4,248.0478057861328,1.4524999856948853,16,0.0,0.0,1561097980,,,,0,,5,-0.15,23.099999999999998,-2591.36865234375,27.485570907592773,,,,
Raw,1679068446447,4283049373000000,18,,-1358820615074279214,-0.382171630859375,254.1890717111528,2.0154996560755443,30.635582684110876,769,13,0.0,16399,489250316998766,40,25.8,193.83506774902344,2.325500011444092,16,0.0,0.0,1561097980,,,,0,,5,-0.15,21.5,-2591.36865234375,27.485570907592773,,,,
Fix,NLP,45.0643728000,7.6614588000,306.8999938964844,,21.93,,1679068447562,,,2063029364000000,3.4518418
Fix,FLP,45.0641421000,7.6615740000,306.8999938964844,0.0021635436,12.356,,1679068447828,,,2063029631397545,3.4518418
Status,1679068447000,28,0,1,8,1575420030,17.10,286.0,18.0,0,1,1,17.1
Status,1679068447000,28,1,1,10,1575420030,14.60,153.0,33.0,0,1,1,14.6
Status,1679068447000,28,2,1,18,1575420030,27.40,52.0,48.0,1,1,1,27.4
Status,1679068447000,28,3,1,23,1575420030,27.80,111.0,47.0,1,1,1,27.8
Status,1679068447000,28,4,1,26,1575420030,26.10,180.0,52.0,1,1,1,26.1
Status,1679068447000,28,5,1,27,1575420030,27.00,298.0,50.0,1,1,1,27.0
Status,1679068447000,28,6,1,2,1575420030,0.00,54.0,9.0,0,1,1,0.0
Status,1679068447000,28,7,1,16,1575420030,0.00,270.0,71.0,0,1,1,0.0
Status,1679068447000,28,8,3,14,1598062460,26.60,192.0,32.0,1,1,0,26.6
Status,1679068447000,28,9,3,16,1601437440,26.80,327.0,22.0,1,1,0,26.8
Status,1679068447000,28,10,3,1,1602562560,24.20,85.0,22.0,1,1,0,24.2
Status,1679068447000,28,11,3,24,1603124990,29.30,40.0,45.0,1,1,0,29.3
Status,1679068447000,28,12,3,17,1604249980,34.40,296.0,59.0,1,1,0,34.4
Status,1679068447000,28,13,3,8,1605374980,30.00,32.0,16.0,1,1,0,30.0
Status,1679068447000,28,14,3,18,1600312450,0.00,258.0,17.0,0,1,0,0.0
Status,1679068447000,28,15,3,15,1602000000,0.00,268.0,58.0,0,1,0,0.0
Status,1679068447000,28,16,5,8,1561097980,29.60,33.0,15.0,1,1,0,29.6
Status,1679068447000,28,17,5,13,1561097980,33.80,39.0,25.0,1,1,0,33.8
Status,1679068447000,28,18,5,23,1561097980,19.10,187.0,16.0,0,1,0,19.1
Status,1679068447000,28,19,5,28,1561097980,17.70,306.0,73.0,0,1,0,17.7
Status,1679068447000,28,20,5,5,1561097980,0.00,118.0,18.0,0,1,0,0.0
Status,1679068447000,28,21,5,14,1561097980,0.00,98.0,26.0,0,1,0,0.0
Status,1679068447000,28,22,5,27,1561097980,0.00,267.0,26.0,0,1,0,0.0
Status,1679068447000,28,23,6,10,1575420030,20.10,344.0,85.0,0,1,0,20.1
Status,1679068447000,28,24,6,24,1575420030,19.80,175.0,53.0,1,1,0,19.8
Status,1679068447000,28,25,6,25,1575420030,20.60,292.0,56.0,0,1,0,20.6
Status,1679068447000,28,26,6,11,1575420030,0.00,241.0,59.0,0,1,0,0.0
Status,1679068447000,28,27,6,12,1575420030,0.00,47.0,59.0,0,1,0,0.0
Fix,GPS,45.0642393200,7.6615789800,310.76336669921875,0.0,8.895915,,1679068448000,0.4404543,,2063030168241065,10.361428
Fix,FLP,45.0641513000,7.6615711000,306.8999938964844,0.028520085,12.259,,1679068448330,,,2063030132839264,3.4598842
Raw,1679068447447,4283050373000000,18,,-1358820615074279137,-0.04514503479003906,123.79966210573912,3.9111376784833043,17.2326476737286,769,14,0.0,49359,68047375636738,31,26.6,742.0323486328125,0.9489999413490295,16,0.0,0.0,1598062460,,,,0,,3,-0.02,23.6,4911.11767578125,17.643539428710938,,,,
Raw,1679068447447,4283050373000000,18,,-1358820615074279137,-0.04514503479003906,123.79966210573912,3.9111376784833043,17.2326476737286,769,16,0.0,49359,68047372797212,31,26.8,-630.5528564453125,0.9444999694824219,16,0.0,0.0,1601437440,,,,0,,3,-0.02,23.8,4911.11767578125,17.643539428710938,,,,
Raw,1679068447447,4283050373000000,18,,-1358820615074279137,-0.04514503479003906,123.79966210573912,3.9111376784833043,17.2326476737286,769,1,0.0,49359,68047372765145,40,24.2,-437.26837158203125,1.0644999742507935,16,0.0,0.0,1602562560,,,,0,,3,-0.02,21.2,4911.11767578125,17.643539428710938,,,,
Raw,1679068447447,4283050373000000,18,,-1358820615074279137,-0.04514503479003906,123.79966210573912,3.9111376784833043,17.2326476737286,769,24,0.0,49359,68047378766842,21,29.3,436.1112060546875,0.3532000184059143,16,0.0,1870.0318021494788,1603124990,,,,0,,3,-0.02,26.3,4911.11767578125,17.643539428710938,,,,
Raw,1679068447447,4283050373000000,18,,-1358820615074279137,-0.04514503479003906,123.79966210573912,3.9111376784833043,17.2326476737286,769,17,0.0,49359,68047381783488,13,34.4,-164.23794555664062,0.22670000791549683,16,0.0,1868.720428711333,1604249980,,,,0,,3,-0.02,31.4,4911.11767578125,17.643539428710938,,,,
Raw,1679068447447,4283050373000000,18,,-1358820615074279137,-0.04514503479003906,123.79966210573912,3.9111376784833043,17.2326476737286,769,8,0.0,49359,68047370388844,19,30.0,167.28192138671875,0.2563000023365021,16,0.0,1867.4108932046968,1605374980,,,,0,,3,-0.02,27.0,4911.11767578125,17.643539428710938,,,,
Raw,1679068447447,4283050373000000,18,,-1358820615074279137,-0.04514503479003906,123.79966210573912,3.9111376784833043,17.2326476737286,769,8,0.0,16399,489265368349938,106,17.1,-566.4091186523438,7.458499908447266,16,0.0,0.0,1575420030,,,,0,,1,0.01,14.100000000000001,0.0,0.0,,,,
Raw,1679068447447,4283050373000000,18,,-1358820615074279137,-0.04514503479003906,123.79966210573912,3.9111376784833043,17.2326476737286,769,10,0.0,16399,489265371611087,159,14.6,-569.0732421875,10.133001327514648,16,0.0,0.0,1575420030,,,,0,,1,0.01,11.6,0.0,0.0,,,,
Raw,1679068447447,4283050373000000,18,,-1358820615074279137,-0.04514503479003906,123.79966210573912,3.9111376784833043,17.2326476737286,769,18,0.0,16399,489265375629772,27,27.4,427.20928955078125,0.6889999508857727,16,0.0,0.0,1575420030,,,,0,,1,0.01,24.4,0.0,0.0,,,,
Raw,1679068447447,4283050373000000,18,,-1358820615074279137,-0.04514503479003906,123.79966210573912,3.9111376784833043,17.2326476737286,769,23,0.0,16399,489265375371622,27,27.8,-243.23338317871094,0.6889999508857727,16,0.0,0.0,1575420030,,,,0,,1,0.01,24.8,0.0,0.0,,,,
Raw,1679068447447,4283050373000000,18,,-1358820615074279137,-0.04514503479003906,123.79966210573912,3.9111376784833043,17.2326476737286,769,26,0.0,16399,489265376422861,31,26.1,450.60589599609375,0.750499963760376,16,0.0,0.0,1575420030,,,,0,,1,0.01,23.1,0.0,0.0,,,,
Raw,1679068447447,4283050373000000,18,,-1358820615074279137,-0.04514503479003906,123.79966210573912,3.9111376784833043,17.2326476737286,769,27,0.0,16399,489265377226285,27,27.0,-355.1260681152344,0.6919999718666077,16,0.0,0.0,1575420030,,,,0,,1,0.01,24.0,0.0,0.0,,,,
Raw,1679068447447,4283050373000000,18,,-1358820615074279137,-0.04514503479003906,123.79966210573912,3.9111376784833043,17.2326476737286,769,8,0.0,16399,489251314557986,24,29.6,247.69287109375,0.4027999937534332,16,0.0,1920.3757538518662,1561097980,,,,0,,5,0.01,25.3,-2591.36865234375,27.485570907592773,,,,
Raw,1679068447447,4283050373000000,18,,-1358820615074279137,-0.04514503479003906,123.79966210573912,3.9111376784833043,17.2326476737286,769,13,0.0,16399,489251316998113,16,33.8,194.8895721435547,0.20000000298023224,16,0.0,1920.3757538518662,1561097980,,,,0,,5,0.01,29.499999999999996,-2591.36865234375,27.485570907592773,,,,
Raw,1679068447447,4283050373000000,18,,-1358820615074279137,-0.04514503479003906,123.79966210573912,3.9111376784833043,17.2326476737286,769,10,0.0,23567,489265369231278,92,20.1,29.219593048095703,7.16200065612793,16,0.0,0.0,1575420030,,,,0,,6,0.01,15.8,-1723.8394775390625,18.90696907043457,,,,
Raw,1679068447447,4283050373000000,18,,-1358820615074279137,-0.04514503479003906,123.79966210573912,3.9111376784833043,17.2326476737286,769,24,0.0,23567,489265365309630,92,19.8,378.3323669433594,3.5470001697540283,16,0.0,0.0,1575420030,,,,0,,6,0.01,15.5,-1723.8394775390625,18.90696907043457,,,,
Raw,1679068447447,4283050373000000,18,,-1358820615074279137,-0.04514503479003906,123.79966210573912,3.9111376784833043,17.2326476737286,769,25,0.0,23567,489265366327016,80,20.6,-183.6524200439453,7.1635003089904785,16,0.0,0.0,1575420030,,,,0,,6,0.01,16.3,-1723.8394775390625,18.90696907043457,,,,
Status,1679068448000,28,0,1,8,1575420030,24.00,286.0,18.0,1,1,1,24.0
Status,1679068448000,28,1,1,10,1575420030,22.30,153.0,33.0,1,1,1,22.3
Status,1679068448000,28,2,1,16,1575420030,16.50,270.0,71.0,0,1,1,16.5
Status,1679068448000,28,3,1,18,1575420030,24.60,52.0,48.0,1,1,1,24.6
Status,1679068448000,28,4,1,23,1575420030,26.00,111.0,47.0,1,1,1,26.0
Status,1679068448000,28,5,1,26,1575420030,24.60,180.0,52.0,1,1,1,24.6
Status,1679068448000,28,6,1,27,1575420030,24.70,298.0,50.0,1,1,1,24.7
Status,1679068448000,28,7,1,2,1575420030,0.00,54.0,9.0,0,1,1,0.0
Status,1679068448000,28,8,3,14,1598062460,26.90,192.0,32.0,1,1,0,26.9
Status,1679068448000,28,9,3,16,1601437440,23.50,327.0,22.0,1,1,0,23.5
Status,1679068448000,28,10,3,15,1602000000,16.50,268.0,58.0,0,1,0,16.5
Status,1679068448000,28,11,3,1,1602562560,25.70,85.0,22.0,1,1,0,25.7
Status,1679068448000,28,12,3,24,1603124990,25.90,40.0,45.0,1,1,0,25.9
Status,1679068448000,28,13,3,17,1604249980,34.90,296.0,59.0,1,1,0,34.9
Status,1679068448000,28,14,3,8,1605374980,26.30,32.0,16.0,1,1,0,26.3
Status,1679068448000,28,15,3,18,1600312450,0.00,258.0,17.0,0,1,0,0.0
Status,1679068448000,28,16,5,8,1561097980,29.00,33.0,15.0,1,1,0,29.0
Status,1679068448000,28,17,5,13,1561097980,34.60,39.0,25.0,1,1,0,34.6
Status,1679068448000,28,18,5,23,1561097980,19.10,187.0,16.0,0,1,0,19.1
Status,1679068448000,28,19,5,28,1561097980,17.50,306.0,73.0,0,1,0,17.5
Status,1679068448000,28,20,5,5,1561097980,0.00,118.0,18.0,0,1,0,0.0
Status,1679068448000,28,21,5,14,1561097980,0.00,98.0,26.0,0,1,0,0.0
Status,1679068448000,28,22,5,27,1561097980,0.00,267.0,26.0,0,1,0,0.0
Status,1679068448000,28,23,6,10,1575420030,28.10,344.0,85.0,1,1,0,28.1
Status,1679068448000,28,24,6,24,1575420030,19.80,175.0,53.0,1,1,0,19.8
Status,1679068448000,28,25,6,25,1575420030,25.60,292.0,56.0,1,1,0,25.6
Status,1679068448000,28,26,6,11,1575420030,0.00,241.0,59.0,0,1,0,0.0
Status,1679068448000,28,27,6,12,1575420030,0.00,47.0,59.0,0,1,0,0.0
Fix,GPS,45.0642634800,7.6615506800,317.4306640625,0.0,7.5077953,,1679068449000,0.43416587,,2063031165163409,9.284701
Fix,FLP,45.0641611000,7.6615695000,306.8999938964844,0.059989713,12.177,,1679068449333,,,2063031135725201,3.4698534
Raw,1679068448447,4283051373000000,18,,-1358820615074279137,-0.49217987060546875,86.97379962541163,2.428869459530591,13.135149536150971,769,14,0.0,49359,68048375634261,31,26.9,743.6832275390625,0.9489999413490295,16,0.0,0.0,1598062460,,,,0,,3,-0.05,23.9,4911.11767578125,17.643539428710938,,,,
Raw,1679068448447,4283051373000000,18,,-1358820615074279137,-0.49217987060546875,86.97379962541163,2.428869459530591,13.135149536150971,769,16,0.0,49359,68048372799429,46,23.5,-629.298583984375,1.1345000267028809,16,0.0,0.0,1601437440,,,,0,,3,-0.05,20.5,4911.11767578125,17.643539428710938,,,,
Raw,1679068448447,4283051373000000,18,,-1358820615074279137,-0.49217987060546875,86.97379962541163,2.428869459530591,13.135149536150971,769,15,0.0,49359,68048381101011,122,16.5,72.01007843017578,8.517999649047852,16,0.0,0.0,1602000000,,,,0,,3,-0.05,13.5,4911.11767578125,17.643539428710938,,,,
Raw,1679068448447,4283051373000000,18,,-1358820615074279137,-0.49217987060546875,86.97379962541163,2.428869459530591,13.135149536150971,769,1,0.0,49359,68048372766439,35,25.7,-436.12725830078125,1.0045000314712524,16,0.0,0.0,1602562560,,,,0,,3,-0.05,22.7,4911.11767578125,17.643539428710938,,,,
Raw,1679068448447,4283051373000000,18,,-1358820615074279137,-0.49217987060546875,86.97379962541163,2.428869459530591,13.135149536150971,769,24,0.0,49359,68048378765485,35,25.9,436.95599365234375,1.028499960899353,16,0.0,0.0,1603124990,,,,0,,3,-0.05,22.9,4911.11767578125,17.643539428710938,,,,
Raw,1679068448447,4283051373000000,18,,-1358820615074279137,-0.49217987060546875,86.97379962541163,2.428869459530591,13.135149536150971,769,17,0.0,49359,68048381784025,13,34.9,-162.91122436523438,0.22670000791549683,16,0.0,1868.720428711333,1604249980,,,,0,,3,-0.05,31.9,4911.11767578125,17.643539428710938,,,,
Raw,1679068448447,4283051373000000,18,,-1358820615074279137,-0.49217987060546875,86.97379962541163,2.428869459530591,13.135149536150971,769,8,0.0,49359,68048370388196,31,26.3,168.71292114257812,0.9414999485015869,16,0.0,0.0,1605374980,,,,0,,3,-0.05,23.3,4911.11767578125,17.643539428710938,,,,
Raw,1679068448447,4283051373000000,18,,-1358820615074279137,-0.49217987060546875,86.97379962541163,2.428869459530591,13.135149536150971,769,8,0.0,16399,489266368351957,40,24.0,-564.0304565429688,0.8585000038146973,16,0.0,0.0,1575420030,,,,0,,1,0.0,21.0,0.0,0.0,,,,
Raw,1679068448447,4283051373000000,18,,-1358820615074279137,-0.49217987060546875,86.97379962541163,2.428869459530591,13.135149536150971,769,10,0.0,16399,489266371612945,53,22.3,-567.9981079101562,1.0130000114440918,16,0.0,0.0,1575420030,,,,0,,1,0.0,19.3,0.0,0.0,,,,
Raw,1679068448447,4283051373000000,18,,-1358820615074279137,-0.49217987060546875,86.97379962541163,2.428869459530591,13.135149536150971,769,16,0.0,16399,489266378804396,122,16.5,-30.29475212097168,8.343500137329102,16,0.0,0.0,1575420030,,,,0,,1,0.0,13.5,0.0,0.0,,,,
Raw,1679068448447,4283051373000000,18,,-1358820615074279137,-0.49217987060546875,86.97379962541163,2.428869459530591,13.135149536150971,769,18,0.0,16399,489266375628268,40,24.6,428.95050048828125,0.8689999580383301,16,0.0,0.0,1575420030,,,,0,,1,0.0,21.6,0.0,0.0,,,,
Raw,1679068448447,4283051373000000,18,,-1358820615074279137,-0.49217987060546875,86.97379962541163,2.428869459530591,13.135149536150971,769,23,0.0,16399,489266375372358,31,26.0,-241.50169372558594,0.7489999532699585,16,0.0,0.0,1575420030,,,,0,,1,0.0,23.0,0.0,0.0,,,,
Raw,1679068448447,4283051373000000,18,,-1358820615074279137,-0.49217987060546875,86.97379962541163,2.428869459530591,13.135149536150971,769,26,0.0,16399,489266376421336,40,24.6,452.7086486816406,0.8704999685287476,16,0.0,0.0,1575420030,,,,0,,1,0.0,21.6,0.0,0.0,,,,
Raw,1679068448447,4283051373000000,18,,-1358820615074279137,-0.49217987060546875,86.97379962541163,2.428869459530591,13.135149536150971,769,27,0.0,16399,489266377227518,40,24.7,-353.4039001464844,0.871999979019165,16,0.0,0.0,1575420030,,,,0,,1,0.0,21.7,0.0,0.0,,,,
Raw,1679068448447,4283051373000000,18,,-1358820615074279137,-0.49217987060546875,86.97379962541163,2.428869459530591,13.135149536150971,769,8,0.0,16399,489252314557167,27,29.0,249.4208984375,0.5975000262260437,16,0.0,0.0,1561097980,,,,0,,5,0.0,24.7,-2591.36865234375,27.485570907592773,,,,
Raw,1679068448447,4283051373000000,18,,-1358820615074279137,-0.49217987060546875,86.97379962541163,2.428869459530591,13.135149536150971,769,13,0.0,16399,489252316997474,14,34.6,196.06072998046875,0.20000000298023224,16,0.0,1920.3757538518662,1561097980,,,,0,,5,0.0,30.3,-2591.36865234375,27.485570907592773,,,,
Raw,1679068448447,4283051373000000,18,,-1358820615074279137,-0.49217987060546875,86.97379962541163,2.428869459530591,13.135149536150971,769,28,0.0,16399,489252374832705,1427,17.5,-87.1379165649414,7.827500343322754,16,0.0,0.0,1561097980,,,,0,,5,0.0,13.2,-2591.36865234375,27.485570907592773,,,,
Raw,1679068448447,4283051373000000,18,,-1358820615074279137,-0.49217987060546875,86.97379962541163,2.428869459530591,13.135149536150971,769,10,0.0,23567,489266369231246,31,28.1,30.71339988708496,0.6420000195503235,16,0.0,0.0,1575420030,,,,0,,6,0.0,23.8,-1723.8394775390625,18.90696907043457,,,,
Raw,1679068448447,4283051373000000,18,,-1358820615074279137,-0.49217987060546875,86.97379962541163,2.428869459530591,13.135149536150971,769,25,0.0,23567,489266366327692,40,25.6,-182.58677673339844,0.828499972820282,16,0.0,0.0,1575420030,,,,0,,6,0.0,21.3,-1723.8394775390625,18.90696907043457,,,,
Status,1679068449000,28,0,1,8,1575420030,25.90,286.0,18.0,1,1,1,25.9
Status,1679068449000,28,1,1,10,1575420030,21.60,153.0,33.0,1,1,1,21.6
Status,1679068449000,28,2,1,16,1575420030,23.80,270.0,71.0,1,1,1,23.8
Status,1679068449000,28,3,1,18,1575420030,24.50,52.0,48.0,1,1,1,24.5
Status,1679068449000,28,4,1,23,1575420030,27.80,111.0,47.0,1,1,1,27.8
Status,1679068449000,28,5,1,26,1575420030,26.10,180.0,52.0,1,1,1,26.1
Status,1679068449000,28,6,1,27,1575420030,26.60,298.0,50.0,1,1,1,26.6
Status,1679068449000,28,7,1,2,1575420030,0.00,54.0,9.0,0,1,1,0.0
Status,1679068449000,28,8,3,14,1598062460,27.10,192.0,32.0,1,1,0,27.1
Status,1679068449000,28,9,3,16,1601437440,21.60,327.0,22.0,1,1,0,21.6
Status,1679068449000,28,10,3,15,1602000000,25.00,268.0,58.0,1,1,0,25.0
Status,1679068449000,28,11,3,1,1602562560,27.00,85.0,22.0,1,1,0,27.0
Status,1679068449000,28,12,3,24,1603124990,28.70,40.0,45.0,1,1,0,28.7
Status,1679068449000,28,13,3,17,1604249980,36.30,296.0,59.0,1,1,0,36.3
Status,1679068449000,28,14,3,8,1605374980,31.70,32.0,16.0,1,1,0,31.7
Status,1679068449000,28,15,3,18,1600312450,0.00,258.0,17.0,0,1,0,0.0
Status,1679068449000,28,16,5,8,1561097980,28.10,33.0,15.0,1,1,0,28.1
Status,1679068449000,28,17,5,13,1561097980,34.30,39.0,25.0,1,1,0,34.3
Status,1679068449000,28,18,5,23,1561097980,19.10,187.0,16.0,0,1,0,19.1
Status,1679068449000,28,19,5,27,1561097980,17.20,267.0,26.0,0,1,0,17.2
Status,1679068449000,28,20,5,28,1561097980,19.40,306.0,73.0,0,1,0,19.4
Status,1679068449000,28,21,5,5,1561097980,0.00,118.0,18.0,0,1,0,0.0
Status,1679068449000,28,22,5,14,1561097980,0.00,98.0,26.0,0,1,0,0.0
Status,1679068449000,28,23,6,10,1575420030,28.40,344.0,85.0,1,1,0,28.4
Status,1679068449000,28,24,6,24,1575420030,24.60,175.0,53.0,1,1,0,24.6
Status,1679068449000,28,25,6,25,1575420030,28.10,292.0,56.0,1,1,0,28.1
Status,1679068449000,28,26,6,11,1575420030,0.00,241.0,59.0,0,1,0,0.0
Status,1679068449000,28,27,6,12,1575420030,0.00,47.0,59.0,0,1,0,0.0
Fix,GPS,45.0642900800,7.6615349100,326.1370849609375,0.0,6.2065315,,1679068450000,0.47010636,,2063032168575023,8.074015
Fix,FLP,45.0641712000,7.6615678000,306.8999938964844,0.08382605,12.001,,1679068450335,,,2063032138613483,3.4798875
Raw,1679068449447,4283052373000000,18,,-1358820615074279128,-0.3130645751953125,77.637771028094,6.77564395192277,12.88068657197797,769,14,0.0,49359,68049375631783,27,27.1,743.514404296875,0.8889999389648438,16,0.0,0.0,1598062460,,,,0,,3,-0.06,24.1,4911.11767578125,17.643539428710938,,,,
Raw,1679068449447,4283052373000000,18,,-1358820615074279128,-0.3130645751953125,77.637771028094,6.77564395192277,12.88068657197797,769,16,0.0,49359,68049372801460,61,21.6,-628.802490234375,1.2944999933242798,16,0.0,0.0,1601437440,,,,0,,3,-0.06,18.6,4911.11767578125,17.643539428710938,,,,
Raw,1679068449447,4283052373000000,18,,-1358820615074279128,-0.3130645751953125,77.637771028094,6.77564395192277,12.88068657197797,769,15,0.0,49359,68049381100879,35,25.0,72.39370727539062,0.9879999756813049,16,0.0,0.0,1602000000,,,,0,,3,-0.06,22.0,4911.11767578125,17.643539428710938,,,,
Raw,1679068449447,4283052373000000,18,,-1358820615074279128,-0.3130645751953125,77.637771028094,6.77564395192277,12.88068657197797,769,1,0.0,49359,68049372767853,27,27.0,-435.9308166503906,0.8844999670982361,16,0.0,0.0,1602562560,,,,0,,3,-0.06,24.0,4911.11767578125,17.643539428710938,,,,
Raw,1679068449447,4283052373000000,18,,-1358820615074279128,-0.3130645751953125,77.637771028094,6.77564395192277,12.88068657197797,769,24,0.0,49359,68049378763965,24,28.7,437.0438537597656,0.6237999796867371,16,0.0,1870.0318021494788,1603124990,,,,0,,3,-0.06,25.7,4911.11767578125,17.643539428710938,,,,
Raw,1679068449447,4283052373000000,18,,-1358820615074279128,-0.3130645751953125,77.637771028094,6.77564395192277,12.88068657197797,769,17,0.0,49359,68049381784562,11,36.3,-163.22280883789062,0.22439999878406525,16,0.0,1868.720428711333,1604249980,,,,0,,3,-0.06,33.3,4911.11767578125,17.643539428710938,,,,
Raw,1679068449447,4283052373000000,18,,-1358820615074279128,-0.3130645751953125,77.637771028094,6.77564395192277,12.88068657197797,769,8,0.0,49359,68049370387682,17,31.7,168.3351593017578,0.2483000010251999,16,0.0,1867.4108932046968,1605374980,,,,0,,3,-0.06,28.7,4911.11767578125,17.643539428710938,,,,
Raw,1679068449447,4283052373000000,18,,-1358820615074279128,-0.3130645751953125,77.637771028094,6.77564395192277,12.88068657197797,769,8,0.0,16399,489267368353763,35,25.9,-564.5823364257812,0.7985000014305115,16,0.0,0.0,1575420030,,,,0,,1,-0.02,22.9,0.0,0.0,,,,
Raw,1679068449447,4283052373000000,18,,-1358820615074279128,-0.3130645751953125,77.637771028094,6.77564395192277,12.88068657197797,769,10,0.0,16399,489267371614865,61,21.6,-568.026611328125,1.0929999351501465,16,0.0,0.0,1575420030,,,,0,,1,-0.02,18.6,0.0,0.0,,,,
Raw,1679068449447,4283052373000000,18,,-1358820615074279128,-0.3130645751953125,77.637771028094,6.77564395192277,12.88068657197797,769,16,0.0,16399,489267378804504,46,23.8,-28.867549896240234,0.9584999680519104,16,0.0,0.0,1575420030,,,,0,,1,-0.02,20.8,0.0,0.0,,,,
Raw,1679068449447,4283052373000000,18,,-1358820615074279128,-0.3130645751953125,77.637771028094,6.77564395192277,12.88068657197797,769,18,0.0,16399,489267375626928,40,24.5,428.4842529296875,0.8689999580383301,16,0.0,0.0,1575420030,,,,0,,1,-0.02,21.5,0.0,0.0,,,,
Raw,1679068449447,4283052373000000,18,,-1358820615074279128,-0.3130645751953125,77.637771028094,6.77564395192277,12.88068657197797,769,23,0.0,16399,489267375373232,27,27.8,-242.32948303222656,0.6889999508857727,16,0.0,0.0,1575420030,,,,0,,1,-0.02,24.8,0.0,0.0,,,,
Raw,1679068449447,4283052373000000,18,,-1358820615074279128,-0.3130645751953125,77.637771028094,6.77564395192277,12.88068657197797,769,26,0.0,16399,489267376419842,31,26.1,451.93792724609375,0.750499963760376,16,0.0,0.0,1575420030,,,,0,,1,-0.02,23.1,0.0,0.0,,,,
Raw,1679068449447,4283052373000000,18,,-1358820615074279128,-0.3130645751953125,77.637771028094,6.77564395192277,12.88068657197797,769,27,0.0,16399,489267377228686,31,26.6,-353.62274169921875,0.7669999599456787,16,0.0,0.0,1575420030,,,,0,,1,-0.02,23.6,0.0,0.0,,,,
Raw,1679068449447,4283052373000000,18,,-1358820615074279128,-0.3130645751953125,77.637771028094,6.77564395192277,12.88068657197797,769,8,0.0,16399,489253314556339,31,28.1,248.4702911376953,0.6375000476837158,16,0.0,0.0,1561097980,,,,0,,5,-0.02,23.8,-2591.36865234375,27.485570907592773,,,,
Raw,1679068449447,4283052373000000,18,,-1358820615074279128,-0.3130645751953125,77.637771028094,6.77564395192277,12.88068657197797,769,13,0.0,16399,489253316996800,14,34.3,195.76783752441406,0.20000000298023224,16,0.0,1920.3757538518662,1561097980,,,,0,,5,-0.02,29.999999999999996,-2591.36865234375,27.485570907592773,,,,
Raw,1679068449447,4283052373000000,18,,-1358820615074279128,-0.3130645751953125,77.637771028094,6.77564395192277,12.88068657197797,769,27,0.0,16399,489253365844489,1476,17.2,-460.71234130859375,9.253999710083008,16,0.0,0.0,1561097980,,,,0,,5,-0.02,12.899999999999999,-2591.36865234375,27.485570907592773,,,,
Raw,1679068449447,4283052373000000,18,,-1358820615074279128,-0.3130645751953125,77.637771028094,6.77564395192277,12.88068657197797,769,28,0.0,16399,489253374832989,1123,19.4,-86.64822387695312,8.357500076293945,16,0.0,0.0,1561097980,,,,0,,5,-0.02,15.099999999999998,-2591.36865234375,27.485570907592773,,,,
Raw,1679068449447,4283052373000000,18,,-1358820615074279128,-0.3130645751953125,77.637771028094,6.77564395192277,12.88068657197797,769,10,0.0,23567,489267369231182,27,28.4,30.741943359375,0.6420000195503235,16,0.0,0.0,1575420030,,,,0,,6,-0.02,24.099999999999998,-1723.8394775390625,18.90696907043457,,,,
Raw,1679068449447,4283052373000000,18,,-1358820615074279128,-0.3130645751953125,77.637771028094,6.77564395192277,12.88068657197797,769,24,0.0,23567,489267365307090,46,24.6,378.5987854003906,1.621999979019165,16,0.0,0.0,1575420030,,,,0,,6,-0.02,20.3,-1723.8394775390625,18.90696907043457,,,,
Raw,1679068449447,4283052373000000,18,,-1358820615074279128,-0.3130645751953125,77.637771028094,6.77564395192277,12.88068657197797,769,25,0.0,23567,489267366328275,31,28.1,-182.08250427246094,0.6585000157356262,16,0.0,0.0,1575420030,,,,0,,6,-0.02,23.8,-1723.8394775390625,18.90696907043457,,,,
Status,1679068450000,28,0,1,8,1575420030,25.50,286.0,18.0,1,1,1,25.5
Status,1679068450000,28,1,1,10,1575420030,20.40,153.0,33.0,1,1,1,20.4
Status,1679068450000,28,2,1,16,1575420030,23.70,270.0,71.0,1,1,1,23.7
Status,1679068450000,28,3,1,18,1575420030,26.70,52.0,48.0,1,1,1,26.7
Status,1679068450000,28,4,1,23,1575420030,28.00,111.0,47.0,1,1,1,28.0
Status,1679068450000,28,5,1,26,1575420030,25.00,180.0,52.0,1,1,1,25.0
Status,1679068450000,28,6,1,27,1575420030,28.70,298.0,50.0,1,1,1,28.7
Status,1679068450000,28,7,1,2,1575420030,0.00,54.0,9.0,0,1,1,0.0
Status,1679068450000,28,8,3,14,1598062460,26.80,192.0,32.0,1,1,0,26.8
Status,1679068450000,28,9,3,16,1601437440,22.10,327.0,22.0,1,1,0,22.1
Status,1679068450000,28,10,3,15,1602000000,23.40,268.0,58.0,1,1,0,23.4
Status,1679068450000,28,11,3,1,1602562560,26.00,85.0,22.0,1,1,0,26.0
Status,1679068450000,28,12,3,24,1603124990,29.20,40.0,45.0,1,1,0,29.2
Status,1679068450000,28,13,3,17,1604249980,36.00,296.0,59.0,1,1,0,36.0
Status,1679068450000,28,14,3,8,1605374980,33.50,32.0,16.0,1,1,0,33.5
Status,1679068450000,28,15,3,18,1600312450,0.00,258.0,17.0,0,1,0,0.0
Status,1679068450000,28,16,5,8,1561097980,27.90,33.0,15.0,1,1,0,27.9
Status,1679068450000,28,17,5,13,1561097980,35.10,39.0,25.0,1,1,0,35.1
Status,1679068450000,28,18,5,23,1561097980,19.10,187.0,16.0,0,1,0,19.1
Status,1679068450000,28,19,5,27,1561097980,17.70,267.0,26.0,0,1,0,17.7
Status,1679068450000,28,20,5,28,1561097980,20.30,306.0,73.0,0,1,0,20.3
Status,1679068450000,28,21,5,5,1561097980,0.00,118.0,18.0,0,1,0,0.0
Status,1679068450000,28,22,5,14,1561097980,0.00,98.0,26.0,0,1,0,0.0
Status,1679068450000,28,23,6,10,1575420030,28.60,344.0,85.0,1,1,0,28.6
Status,1679068450000,28,24,6,24,1575420030,26.20,175.0,53.0,1,1,0,26.2
Status,1679068450000,28,25,6,25,1575420030,28.80,292.0,56.0,1,1,0,28.8
Status,1679068450000,28,26,6,11,1575420030,0.00,241.0,59.0,0,1,0,0.0
Status,1679068450000,28,27,6,12,1575420030,0.00,47.0,59.0,0,1,0,0.0
Fix,GPS,45.0643092400,7.6615105300,329.85528564453125,0.0,5.7003026,,1679068451000,0.25,,2063033169003720,7.580575
Fix,FLP,45.0641818000,7.6615672000,306.8999938964844,0.09874434,11.832,,1679068451339,,,2063033141453378,3.4898918
Raw,1679068450447,4283053373000000,18,,-1358820615074279109,-0.8654270172119141,69.62382758501917,5.502342587735937,13.576223074593399,769,14,0.0,49359,68050375629237,31,26.8,743.3079833984375,0.9489999413490295,16,0.0,0.0,1598062460,,,,0,,3,-0.04,23.8,4911.11767578125,17.643539428710938,,,,
Raw,1679068450447,4283053373000000,18,,-1358820615074279109,-0.8654270172119141,69.62382758501917,5.502342587735937,13.576223074593399,769,16,0.0,49359,68050372803520,53,22.1,-630.375,1.214500069618225,16,0.0,0.0,1601437440,,,,0,,3,-0.04,19.1,4911.11767578125,17.643539428710938,,,,
Raw,1679068450447,4283053373000000,18,,-1358820615074279109,-0.8654270172119141,69.62382758501917,5.502342587735937,13.576223074593399,769,15,0.0,49359,68050381100560,46,23.4,71.64515686035156,1.1180000305175781,16,0.0,0.0,1602000000,,,,0,,3,-0.04,20.4,4911.11767578125,17.643539428710938,,,,
Raw,1679068450447,4283053373000000,18,,-1358820615074279109,-0.8654270172119141,69.62382758501917,5.502342587735937,13.576223074593399,769,1,0.0,49359,68050372769359,31,26.0,-435.519287109375,0.9444999694824219,16,0.0,0.0,1602562560,,,,0,,3,-0.04,23.0,4911.11767578125,17.643539428710938,,,,
Raw,1679068450447,4283053373000000,18,,-1358820615074279109,-0.8654270172119141,69.62382758501917,5.502342587735937,13.576223074593399,769,24,0.0,49359,68050378762572,21,29.2,437.0113220214844,0.3532000184059143,16,0.0,1870.0318021494788,1603124990,,,,0,,3,-0.04,26.2,4911.11767578125,17.643539428710938,,,,
Raw,1679068450447,4283053373000000,18,,-1358820615074279109,-0.8654270172119141,69.62382758501917,5.502342587735937,13.576223074593399,769,17,0.0,49359,68050381785074,11,36.0,-163.13006591796875,0.22439999878406525,16,0.0,1868.720428711333,1604249980,,,,0,,3,-0.04,33.0,4911.11767578125,17.643539428710938,,,,
Raw,1679068450447,4283053373000000,18,,-1358820615074279109,-0.8654270172119141,69.62382758501917,5.502342587735937,13.576223074593399,769,8,0.0,49359,68050370387143,14,33.5,168.61676025390625,0.24080000817775726,16,0.0,1867.4108932046968,1605374980,,,,0,,3,-0.04,30.5,4911.11767578125,17.643539428710938,,,,
Raw,1679068450447,4283053373000000,18,,-1358820615074279109,-0.8654270172119141,69.62382758501917,5.502342587735937,13.576223074593399,769,8,0.0,16399,489268368355699,35,25.5,-564.5347290039062,0.7985000014305115,16,0.0,0.0,1575420030,,,,0,,1,0.0,22.5,0.0,0.0,,,,
Raw,1679068450447,4283053373000000,18,,-1358820615074279109,-0.8654270172119141,69.62382758501917,5.502342587735937,13.576223074593399,769,10,0.0,16399,489268371616829,70,20.4,-567.6270141601562,1.1829999685287476,16,0.0,0.0,1575420030,,,,0,,1,0.0,17.4,0.0,0.0,,,,
Raw,1679068450447,4283053373000000,18,,-1358820615074279109,-0.8654270172119141,69.62382758501917,5.502342587735937,13.576223074593399,769,16,0.0,16399,489268378804634,46,23.7,-28.648712158203125,0.9584999680519104,16,0.0,0.0,1575420030,,,,0,,1,0.0,20.7,0.0,0.0,,,,
Raw,1679068450447,4283053373000000,18,,-1358820615074279109,-0.8654270172119141,69.62382758501917,5.502342587735937,13.576223074593399,769,18,0.0,16399,489268375625541,31,26.7,428.3415222167969,0.7489999532699585,16,0.0,0.0,1575420030,,,,0,,1,0.0,23.7,0.0,0.0,,,,
Raw,1679068450447,4283053373000000,18,,-1358820615074279109,-0.8654270172119141,69.62382758501917,5.502342587735937,13.576223074593399,769,23,0.0,16399,489268375374070,24,28.0,-241.97879028320312,0.4043000042438507,16,0.0,1902.9177342976868,1575420030,,,,0,,1,0.0,25.0,0.0,0.0,,,,
Raw,1679068450447,4283053373000000,18,,-1358820615074279109,-0.8654270172119141,69.62382758501917,5.502342587735937,13.576223074593399,769,26,0.0,16399,489268376418387,35,25.0,452.1092224121094,0.8104999661445618,16,0.0,0.0,1575420030,,,,0,,1,0.0,22.0,0.0,0.0,,,,
Raw,1679068450447,4283053373000000,18,,-1358820615074279109,-0.8654270172119141,69.62382758501917,5.502342587735937,13.576223074593399,769,27,0.0,16399,489268377229898,24,28.7,-354.0008850097656,0.4072999954223633,16,0.0,1902.9177342976868,1575420030,,,,0,,1,0.0,25.7,0.0,0.0,,,,
Raw,1679068450447,4283053373000000,18,,-1358820615074279109,-0.8654270172119141,69.62382758501917,5.502342587735937,13.576223074593399,769,8,0.0,16399,489254314555484,31,27.9,248.32626342773438,0.6875,16,0.0,0.0,1561097980,,,,0,,5,0.0,23.599999999999998,-2591.36865234375,27.485570907592773,,,,
Raw,1679068450447,4283053373000000,18,,-1358820615074279109,-0.8654270172119141,69.62382758501917,5.502342587735937,13.576223074593399,769,13,0.0,16399,489254316996162,14,35.1,195.79586791992188,0.20000000298023224,16,0.0,1920.3757538518662,1561097980,,,,0,,5,0.0,30.8,-2591.36865234375,27.485570907592773,,,,
Raw,1679068450447,4283053373000000,18,,-1358820615074279109,-0.8654270172119141,69.62382758501917,5.502342587735937,13.576223074593399,769,27,0.0,16399,489254365846028,1506,17.7,-460.3475036621094,10.004000663757324,16,0.0,0.0,1561097980,,,,0,,5,0.0,13.399999999999999,-2591.36865234375,27.485570907592773,,,,
Raw,1679068450447,4283053373000000,18,,-1358820615074279109,-0.8654270172119141,69.62382758501917,5.502342587735937,13.576223074593399,769,28,0.0,16399,489254374833297,1017,20.3,-86.61941528320312,9.017499923706055,16,0.0,0.0,1561097980,,,,0,,5,0.0,16.0,-2591.36865234375,27.485570907592773,,,,
Raw,1679068450447,4283053373000000,18,,-1358820615074279109,-0.8654270172119141,69.62382758501917,5.502342587735937,13.576223074593399,769,10,0.0,23567,489268369231078,27,28.6,30.285240173339844,0.6420000195503235,16,0.0,0.0,1575420030,,,,0,,6,0.0,24.3,-1723.8394775390625,18.90696907043457,,,,
Raw,1679068450447,4283053373000000,18,,-1358820615074279109,-0.8654270172119141,69.62382758501917,5.502342587735937,13.576223074593399,769,24,0.0,23567,489268365305870,40,26.2,379.06500244140625,0.7519999742507935,16,0.0,0.0,1575420030,,,,0,,6,0.0,21.9,-1723.8394775390625,18.90696907043457,,,,
Raw,1679068450447,4283053373000000,18,,-1358820615074279109,-0.8654270172119141,69.62382758501917,5.502342587735937,13.576223074593399,769,25,0.0,23567,489268366328933,27,28.8,-182.01589965820312,0.6585000157356262,16,0.0,0.0,1575420030,,,,0,,6,0.0,24.5,-1723.8394775390625,18.90696907043457,,,,
Status,1679068451000,28,0,1,8,1575420030,26.70,286.0,18.0,1,1,1,26.7
Status,1679068451000,28,1,1,10,1575420030,20.40,153.0,33.0,1,1,1,20.4
Status,1679068451000,28,2,1,16,1575420030,23.10,270.0,71.0,1,1,1,23.1
Status,1679068451000,28,3,1,18,1575420030,26.90,52.0,48.0,1,1,1,26.9
Status,1679068451000,28,4,1,23,1575420030,28.00,111.0,47.0,1,1,1,28.0
Status,1679068451000,28,5,1,26,1575420030,24.20,180.0,52.0,1,1,1,24.2
Status,1679068451000,28,6,1,27,1575420030,28.50,298.0,50.0,1,1,1,28.5
Status,1679068451000,28,7,1,2,1575420030,0.00,54.0,9.0,0,1,1,0.0
Status,1679068451000,28,8,3,14,1598062460,26.10,192.0,32.0,1,1,0,26.1
Status,1679068451000,28,9,3,16,1601437440,22.50,327.0,22.0,1,1,0,22.5
Status,1679068451000,28,10,3,15,1602000000,21.70,268.0,58.0,1,1,0,21.7
Status,1679068451000,28,11,3,1,1602562560,24.90,85.0,22.0,1,1,0,24.9
Status,1679068451000,28,12,3,24,1603124990,29.10,40.0,45.0,1,1,0,29.1
Status,1679068451000,28,13,3,17,1604249980,36.40,296.0,59.0,1,1,0,36.4
Status,1679068451000,28,14,3,8,1605374980,32.20,32.0,16.0,1,1,0,32.2
Status,1679068451000,28,15,3,18,1600312450,0.00,258.0,17.0,0,1,0,0.0
Status,1679068451000,28,16,5,8,1561097980,27.00,33.0,15.0,1,1,0,27.0
Status,1679068451000,28,17,5,13,1561097980,35.20,39.0,25.0,1,1,0,35.2
Status,1679068451000,28,18,5,23,1561097980,15.60,187.0,16.0,0,1,0,15.6
Status,1679068451000,28,19,5,27,1561097980,17.70,267.0,26.0,0,1,0,17.7
Status,1679068451000,28,20,5,28,1561097980,20.60,306.0,73.0,0,1,0,20.6
Status,1679068451000,28,21,5,5,1561097980,0.00,118.0,18.0,0,1,0,0.0
Status,1679068451000,28,22,5,14,1561097980,0.00,98.0,26.0,0,1,0,0.0
Status,1679068451000,28,23,6,10,1575420030,28.30,344.0,85.0,1,1,0,28.3
Status,1679068451000,28,24,6,24,1575420030,25.00,175.0,53.0,1,1,0,25.0
Status,1679068451000,28,25,6,25,1575420030,28.70,292.0,56.0,1,1,0,28.7
Status,1679068451000,28,26,6,11,1575420030,0.00,241.0,59.0,0,1,0,0.0
Status,1679068451000,28,27,6,12,1575420030,0.00,47.0,59.0,0,1,0,0.0
Fix,FLP,45.0641933000,7.6615664000,306.8999938964844,0.110777125,11.177,359.96252,1679068452342,,,2063034144344137,3.4999208
Fix,GPS,45.0643248500,7.6615102100,331.6170654296875,0.0,5.506872,,1679068452000,0.3560899,,2063034171891012,7.433881
Raw,1679068451447,4283054373000000,18,,-1358820615074279105,-0.30567169189453125,66.57557241851464,5.548553453943135,12.492163464506934,769,14,0.0,49359,68051375626806,31,26.1,744.011474609375,0.9489999413490295,16,0.0,0.0,1598062460,,,,0,,3,-0.05,23.1,4911.11767578125,17.643539428710938,,,,
Raw,1679068451447,4283054373000000,18,,-1358820615074279105,-0.30567169189453125,66.57557241851464,5.548553453943135,12.492163464506934,769,16,0.0,49359,68051372805804,53,22.5,-627.7354125976562,1.214500069618225,16,0.0,0.0,1601437440,,,,0,,3,-0.05,19.5,4911.11767578125,17.643539428710938,,,,
Raw,1679068451447,4283054373000000,18,,-1358820615074279105,-0.30567169189453125,66.57557241851464,5.548553453943135,12.492163464506934,769,15,0.0,49359,68051381100380,61,21.7,72.95511627197266,1.277999997138977,16,0.0,0.0,1602000000,,,,0,,3,-0.05,18.7,4911.11767578125,17.643539428710938,,,,
Raw,1679068451447,4283054373000000,18,,-1358820615074279105,-0.30567169189453125,66.57557241851464,5.548553453943135,12.492163464506934,769,1,0.0,49359,68051372770916,40,24.9,-435.2947998046875,1.0644999742507935,16,0.0,0.0,1602562560,,,,0,,3,-0.05,21.9,4911.11767578125,17.643539428710938,,,,
Raw,1679068451447,4283054373000000,18,,-1358820615074279105,-0.30567169189453125,66.57557241851464,5.548553453943135,12.492163464506934,769,24,0.0,49359,68051378761093,21,29.1,437.8330078125,0.3532000184059143,16,0.0,1870.0318021494788,1603124990,,,,0,,3,-0.05,26.1,4911.11767578125,17.643539428710938,,,,
Raw,1679068451447,4283054373000000,18,,-1358820615074279105,-0.30567169189453125,66.57557241851464,5.548553453943135,12.492163464506934,769,17,0.0,49359,68051381785615,11,36.4,-162.38235473632812,0.22439999878406525,16,0.0,1868.720428711333,1604249980,,,,0,,3,-0.05,33.4,4911.11767578125,17.643539428710938,,,,
Raw,1679068451447,4283054373000000,18,,-1358820615074279105,-0.30567169189453125,66.57557241851464,5.548553453943135,12.492163464506934,769,8,0.0,49359,68051370386552,16,32.2,169.32875061035156,0.24170000851154327,16,0.0,1867.4108932046968,1605374980,,,,0,,3,-0.05,29.200000000000003,4911.11767578125,17.643539428710938,,,,
Raw,1679068451447,4283054373000000,18,,-1358820615074279105,-0.30567169189453125,66.57557241851464,5.548553453943135,12.492163464506934,769,8,0.0,16399,489269368357478,31,26.7,-564.3634643554688,0.7384999990463257,16,0.0,0.0,1575420030,,,,0,,1,0.0,23.7,0.0,0.0,,,,
Raw,1679068451447,4283054373000000,18,,-1358820615074279105,-0.30567169189453125,66.57557241851464,5.548553453943135,12.492163464506934,769,16,0.0,16399,489269378804703,46,23.1,-28.058801651000977,0.9584999680519104,16,0.0,0.0,1575420030,,,,0,,1,0.0,20.1,0.0,0.0,,,,
Raw,1679068451447,4283054373000000,18,,-1358820615074279105,-0.30567169189453125,66.57557241851464,5.548553453943135,12.492163464506934,769,18,0.0,16399,489269375624086,31,26.9,429.3976745605469,0.7489999532699585,16,0.0,0.0,1575420030,,,,0,,1,0.0,23.9,0.0,0.0,,,,
Raw,1679068451447,4283054373000000,18,,-1358820615074279105,-0.30567169189453125,66.57557241851464,5.548553453943135,12.492163464506934,769,23,0.0,16399,489269375374875,24,28.0,-241.27818298339844,0.4043000042438507,16,0.0,1902.9177342976868,1575420030,,,,0,,1,0.0,25.0,0.0,0.0,,,,
Raw,1679068451447,4283054373000000,18,,-1358820615074279105,-0.30567169189453125,66.57557241851464,5.548553453943135,12.492163464506934,769,26,0.0,16399,489269376416873,40,24.2,452.4993591308594,0.8704999685287476,16,0.0,0.0,1575420030,,,,0,,1,0.0,21.2,0.0,0.0,,,,
Raw,1679068451447,4283054373000000,18,,-1358820615074279105,-0.30567169189453125,66.57557241851464,5.548553453943135,12.492163464506934,769,27,0.0,16399,489269377231071,24,28.5,-353.29827880859375,0.4072999954223633,16,0.0,1902.9177342976868,1575420030,,,,0,,1,0.0,25.5,0.0,0.0,,,,
Raw,1679068451447,4283054373000000,18,,-1358820615074279105,-0.30567169189453125,66.57557241851464,5.548553453943135,12.492163464506934,769,8,0.0,16399,489255314554675,35,27.0,249.72816467285156,0.6875,16,0.0,0.0,1561097980,,,,0,,5,0.0,22.7,-2591.36865234375,27.485570907592773,,,,
Raw,1679068451447,4283054373000000,18,,-1358820615074279105,-0.30567169189453125,66.57557241851464,5.548553453943135,12.492163464506934,769,13,0.0,16399,489255316995505,14,35.2,196.41964721679688,0.20000000298023224,16,0.0,1920.3757538518662,1561097980,,,,0,,5,0.0,30.900000000000002,-2591.36865234375,27.485570907592773,,,,
Raw,1679068451447,4283054373000000,18,,-1358820615074279105,-0.30567169189453125,66.57557241851464,5.548553453943135,12.492163464506934,769,23,0.0,16399,489255361532230,1943,15.6,647.9892578125,10.248000144958496,16,0.0,0.0,1561097980,,,,0,,5,0.0,11.3,-2591.36865234375,27.485570907592773,,,,
Raw,1679068451447,4283054373000000,18,,-1358820615074279105,-0.30567169189453125,66.57557241851464,5.548553453943135,12.492163464506934,769,27,0.0,16399,489255365847566,122,17.7,-460.26104736328125,11.129000663757324,16,0.0,0.0,1561097980,,,,0,,5,0.0,13.399999999999999,-2591.36865234375,27.485570907592773,,,,
Raw,1679068451447,4283054373000000,18,,-1358820615074279105,-0.30567169189453125,66.57557241851464,5.548553453943135,12.492163464506934,769,28,0.0,16399,489255374833590,1046,20.6,-86.26414489746094,9.767499923706055,16,0.0,0.0,1561097980,,,,0,,5,0.0,16.3,-2591.36865234375,27.485570907592773,,,,
Raw,1679068451447,4283054373000000,18,,-1358820615074279105,-0.30567169189453125,66.57557241851464,5.548553453943135,12.492163464506934,769,10,0.0,23567,489269369230968,27,28.3,31.17961883544922,0.6420000195503235,16,0.0,0.0,1575420030,,,,0,,6,0.0,24.0,-1723.8394775390625,18.90696907043457,,,,
Raw,1679068451447,4283054373000000,18,,-1358820615074279105,-0.30567169189453125,66.57557241851464,5.548553453943135,12.492163464506934,769,24,0.0,23567,489269365304583,46,25.0,379.74053955078125,0.8119999766349792,16,0.0,0.0,1575420030,,,,0,,6,0.0,20.7,-1723.8394775390625,18.90696907043457,,,,
Raw,1679068451447,4283054373000000,18,,-1358820615074279105,-0.30567169189453125,66.57557241851464,5.548553453943135,12.492163464506934,769,25,0.0,23567,489269366329511,27,28.7,-181.368896484375,0.643500030040741,16,0.0,0.0,1575420030,,,,0,,6,0.0,24.4,-1723.8394775390625,18.90696907043457,,,,
Fix,NLP,45.0642559000,7.6614881000,306.8999938964844,,27.506,,1679068452569,,,2063034371000000,4.2350235
Fix,FLP,45.0642017000,7.6615663000,306.8999938964844,0.107604004,10.438,359.97983,1679068452843,,,2063034645783772,4.2350235
Status,1679068452000,28,0,1,8,1575420030,24.70,286.0,18.0,1,1,1,24.7
Status,1679068452000,28,1,1,10,1575420030,19.20,153.0,33.0,1,1,1,19.2
Status,1679068452000,28,2,1,16,1575420030,23.70,270.0,71.0,1,1,1,23.7
Status,1679068452000,28,3,1,18,1575420030,26.60,52.0,48.0,1,1,1,26.6
Status,1679068452000,28,4,1,23,1575420030,27.70,111.0,47.0,1,1,1,27.7
Status,1679068452000,28,5,1,26,1575420030,25.10,180.0,52.0,1,1,1,25.1
Status,1679068452000,28,6,1,27,1575420030,28.60,298.0,50.0,1,1,1,28.6
Status,1679068452000,28,7,1,2,1575420030,0.00,54.0,9.0,0,1,1,0.0
Status,1679068452000,28,8,3,14,1598062460,24.70,192.0,32.0,1,1,0,24.7
Status,1679068452000,28,9,3,16,1601437440,23.10,327.0,22.0,1,1,0,23.1
Status,1679068452000,28,10,3,15,1602000000,20.80,268.0,58.0,1,1,0,20.8
Status,1679068452000,28,11,3,1,1602562560,26.10,85.0,22.0,1,1,0,26.1
Status,1679068452000,28,12,3,24,1603124990,28.30,40.0,45.0,1,1,0,28.3
Status,1679068452000,28,13,3,17,1604249980,36.00,296.0,59.0,1,1,0,36.0
Status,1679068452000,28,14,3,8,1605374980,31.70,32.0,16.0,1,1,0,31.7
Status,1679068452000,28,15,3,18,1600312450,0.00,258.0,17.0,0,1,0,0.0
Status,1679068452000,28,16,5,8,1561097980,29.00,33.0,15.0,1,1,0,29.0
Status,1679068452000,28,17,5,13,1561097980,34.70,39.0,25.0,1,1,0,34.7
Status,1679068452000,28,18,5,23,1561097980,15.60,187.0,16.0,0,1,0,15.6
Status,1679068452000,28,19,5,27,1561097980,20.40,267.0,26.0,0,1,0,20.4
Status,1679068452000,28,20,5,28,1561097980,20.80,306.0,73.0,0,1,0,20.8
Status,1679068452000,28,21,5,5,1561097980,0.00,118.0,18.0,0,1,0,0.0
Status,1679068452000,28,22,5,14,1561097980,0.00,98.0,26.0,0,1,0,0.0
Status,1679068452000,28,23,6,10,1575420030,29.10,344.0,85.0,1,1,0,29.1
Status,1679068452000,28,24,6,24,1575420030,23.50,175.0,53.0,1,1,0,23.5
Status,1679068452000,28,25,6,25,1575420030,28.60,292.0,56.0,1,1,0,28.6
Status,1679068452000,28,26,6,11,1575420030,0.00,241.0,59.0,0,1,0,0.0
Status,1679068452000,28,27,6,12,1575420030,0.00,47.0,59.0,0,1,0,0.0
Fix,GPS,45.0643336100,7.6615124700,330.4654541015625,0.0,5.2536907,,1679068453000,0.29832867,,2063035174483199,7.248063
Fix,FLP,45.0642096000,7.6615652000,306.8999938964844,0.16040854,9.731,359.73477,1679068453345,,,2063035147224501,4.243058
Raw,1679068452447,4283055373000000,18,,-1358820615074279096,-0.18616104125976562,67.90339102735743,6.912834312483789,13.544189245489497,769,14,0.0,49359,68052375624322,40,24.7,745.0432739257812,1.069000005722046,16,0.0,0.0,1598062460,,,,0,,3,-0.05,21.7,4911.11767578125,17.643539428710938,,,,
Raw,1679068452447,4283055373000000,18,,-1358820615074279096,-0.18616104125976562,67.90339102735743,6.912834312483789,13.544189245489497,769,16,0.0,49359,68052372807874,46,23.1,-628.5498046875,1.1345000267028809,16,0.0,0.0,1601437440,,,,0,,3,-0.05,20.1,4911.11767578125,17.643539428710938,,,,
Raw,1679068452447,4283055373000000,18,,-1358820615074279096,-0.18616104125976562,67.90339102735743,6.912834312483789,13.544189245489497,769,15,0.0,49359,68052381100057,70,20.8,74.53641510009766,1.3680000305175781,16,0.0,0.0,1602000000,,,,0,,3,-0.05,17.8,4911.11767578125,17.643539428710938,,,,
Raw,1679068452447,4283055373000000,18,,-1358820615074279096,-0.18616104125976562,67.90339102735743,6.912834312483789,13.544189245489497,769,1,0.0,49359,68052372772390,31,26.1,-433.85430908203125,0.9444999694824219,16,0.0,0.0,1602562560,,,,0,,3,-0.05,23.1,4911.11767578125,17.643539428710938,,,,
Raw,1679068452447,4283055373000000,18,,-1358820615074279096,-0.18616104125976562,67.90339102735743,6.912834312483789,13.544189245489497,769,24,0.0,49359,68052378759614,24,28.3,438.78814697265625,0.6237999796867371,16,0.0,1870.0318021494788,1603124990,,,,0,,3,-0.05,25.3,4911.11767578125,17.643539428710938,,,,
Raw,1679068452447,4283055373000000,18,,-1358820615074279096,-0.18616104125976562,67.90339102735743,6.912834312483789,13.544189245489497,769,17,0.0,49359,68052381786190,11,36.0,-161.47183227539062,0.22439999878406525,16,0.0,1868.720428711333,1604249980,,,,0,,3,-0.05,33.0,4911.11767578125,17.643539428710938,,,,
Raw,1679068452447,4283055373000000,18,,-1358820615074279096,-0.18616104125976562,67.90339102735743,6.912834312483789,13.544189245489497,769,8,0.0,49359,68052370385979,17,31.7,170.41273498535156,0.2483000010251999,16,0.0,1867.4108932046968,1605374980,,,,0,,3,-0.05,28.7,4911.11767578125,17.643539428710938,,,,
Raw,1679068452447,4283055373000000,18,,-1358820615074279096,-0.18616104125976562,67.90339102735743,6.912834312483789,13.544189245489497,769,8,0.0,16399,489270368359405,40,24.7,-563.3073120117188,0.8585000038146973,16,0.0,0.0,1575420030,,,,0,,1,0.0,21.7,0.0,0.0,,,,
Raw,1679068452447,4283055373000000,18,,-1358820615074279096,-0.18616104125976562,67.90339102735743,6.912834312483789,13.544189245489497,769,10,0.0,16399,489270371620560,80,19.2,-565.7811279296875,2.0230000019073486,16,0.0,0.0,1575420030,,,,0,,1,0.0,16.2,0.0,0.0,,,,
Raw,1679068452447,4283055373000000,18,,-1358820615074279096,-0.18616104125976562,67.90339102735743,6.912834312483789,13.544189245489497,769,16,0.0,16399,489270378804772,46,23.7,-26.53645133972168,0.9584999680519104,16,0.0,0.0,1575420030,,,,0,,1,0.0,20.7,0.0,0.0,,,,
Raw,1679068452447,4283055373000000,18,,-1358820615074279096,-0.18616104125976562,67.90339102735743,6.912834312483789,13.544189245489497,769,18,0.0,16399,489270375622678,31,26.6,430.4062194824219,0.7489999532699585,16,0.0,0.0,1575420030,,,,0,,1,0.0,23.6,0.0,0.0,,,,
Raw,1679068452447,4283055373000000,18,,-1358820615074279096,-0.18616104125976562,67.90339102735743,6.912834312483789,13.544189245489497,769,23,0.0,16399,489270375375698,27,27.7,-240.2362518310547,0.6889999508857727,16,0.0,0.0,1575420030,,,,0,,1,0.0,24.7,0.0,0.0,,,,
Raw,1679068452447,4283055373000000,18,,-1358820615074279096,-0.18616104125976562,67.90339102735743,6.912834312483789,13.544189245489497,769,26,0.0,16399,489270376415333,35,25.1,453.8218688964844,0.8104999661445618,16,0.0,0.0,1575420030,,,,0,,1,0.0,22.1,0.0,0.0,,,,
Raw,1679068452447,4283055373000000,18,,-1358820615074279096,-0.18616104125976562,67.90339102735743,6.912834312483789,13.544189245489497,769,27,0.0,16399,489270377232254,24,28.6,-352.31182861328125,0.4072999954223633,16,0.0,1902.9177342976868,1575420030,,,,0,,1,0.0,25.6,0.0,0.0,,,,
Raw,1679068452447,4283055373000000,18,,-1358820615074279096,-0.18616104125976562,67.90339102735743,6.912834312483789,13.544189245489497,769,8,0.0,16399,489256314553864,27,29.0,250.16986083984375,0.5975000262260437,16,0.0,0.0,1561097980,,,,0,,5,0.0,24.7,-2591.36865234375,27.485570907592773,,,,
